FID,the_geom,Educ_Code,Educ_Name,Adm2_Name,Adm3_Name,Adm4_Name,Adm4_Code,Educ_Type,Latitude,Longitude,Accuracy,ADM4_COD_1,ADM3_NAM_1,ADM2_NAM_1,NUMBER
sle_educ_pt_steward_schools.16651,POINT (-11.483655342999953 7.510207477000051),SLE_Seco_0001,Barri Islamic Secondary School,Pujehun,Barri,Fallay,SLE03040102,Secondary School,7.51020748,-11.48365534,Needs Validation - STEWARD Project,SLE03040102,Barri,Pujehun,1
sle_educ_pt_steward_schools.16652,POINT (-11.720797890999961 7.35207452800006),SLE_Seco_0002,Holy Rosary Sec. School,Pujehun,Kpanga - Kabonde,Pamga,SLE03040406,Secondary School,7.35207453,-11.72079789,Needs Validation - STEWARD Project,SLE03040406,Panga Kabonde,Pujehun,2
sle_educ_pt_steward_schools.16653,POINT (-11.729275606999977 7.360489552000047),SLE_Seco_0003,St. Paul's Secondary School,Pujehun,Kpanga - Kabonde,Pamga,SLE03040406,Secondary School,7.36048955,-11.72927561,Needs Validation - STEWARD Project,SLE03040406,Panga Kabonde,Pujehun,3
sle_educ_pt_steward_schools.16654,POINT (-11.882824651999954 7.42617576400005),SLE_Scho_0004,Massaoma,Pujehun,Malen,Bahoin,SLE03040601,School,7.42617576,-11.88282465,Needs Validation - STEWARD Project,SLE03040601,Malen,Pujehun,4
sle_educ_pt_steward_schools.16655,POINT (-11.711138554999934 7.366626756000073),SLE_Seco_0005,Gobaru Secondary School,Pujehun,Panga Krim,Pemagbie,SLE03040802,Secondary School,7.36662676,-11.71113856,Needs Validation - STEWARD Project,SLE03040802,Panga krim,Pujehun,5
sle_educ_pt_steward_schools.16656,POINT (-11.40606228699994 7.0935956680000345),SLE_Seco_0006,Sorogbema Secoundary School,Pujehun,Sorogbema,Zoker I,SLE03041008,Secondary School,7.09359567,-11.40606229,Needs Validation - STEWARD Project,SLE03041008,Soro Gbema,Pujehun,6
sle_educ_pt_steward_schools.16657,POINT (-12.391154090999976 7.4784856040000705),SLE_Prim_0007,D.E.C. Primary School,Bonthe,Bendu - Cha,Sokenteh,SLE03020102,Primary School,7.4784856,-12.39115409,Needs Validation - STEWARD Project,SLE03020102,Bendu-Cha,Bonthe,7
sle_educ_pt_steward_schools.16658,POINT (-12.45517353799994 7.488601877000065),SLE_Prim_0008,UMC Primary School - Bendu,Bonthe,Bendu - Cha,Sokenteh,SLE03020102,Primary School,7.48860188,-12.45517354,Needs Validation - STEWARD Project,SLE03020102,Bendu-Cha,Bonthe,8
sle_educ_pt_steward_schools.16659,POINT (-11.93669555899993 7.420727193000062),SLE_Prim_0009,Islamic Call Society Primary School,Bonthe,Bum,Fikie,SLE03020201,Primary School,7.42072719,-11.93669556,Needs Validation - STEWARD Project,SLE03020201,Bum,Bonthe,9
sle_educ_pt_steward_schools.16660,POINT (-11.907695021999928 7.419020812000042),SLE_Prim_0010,R.C. Primary School,Bonthe,Bum,Gbengain,SLE03020202,Primary School,7.41902081,-11.90769502,Needs Validation - STEWARD Project,SLE03020202,Bum,Bonthe,10
sle_educ_pt_steward_schools.16661,POINT (-11.943554915999925 7.462636495000027),SLE_Prim_0011,D.E.C. Primary School,Bonthe,Bum,Gbondubum,SLE03020203,Primary School,7.4626365,-11.94355492,Needs Validation - STEWARD Project,SLE03020203,Bum,Bonthe,11
sle_educ_pt_steward_schools.16662,POINT (-11.973319669999967 7.433745293000072),SLE_Prim_0012,Methodist Primary School,Bonthe,Bum,Gbondubum,SLE03020203,Primary School,7.43374529,-11.97331967,Needs Validation - STEWARD Project,SLE03020203,Bum,Bonthe,12
sle_educ_pt_steward_schools.16663,POINT (-11.943761593999966 7.463764389000062),SLE_Prim_0013,Namya Islamic Primary School,Bonthe,Bum,Gbondubum,SLE03020203,Primary School,7.46376439,-11.94376159,Needs Validation - STEWARD Project,SLE03020203,Bum,Bonthe,13
sle_educ_pt_steward_schools.16664,POINT (-11.926094898999963 7.49525796100005),SLE_Prim_0014,Islamic Call Society Primary School,Bonthe,Bum,Lanje,SLE03020205,Primary School,7.49525796,-11.9260949,Needs Validation - STEWARD Project,SLE03020205,Bum,Bonthe,14
sle_educ_pt_steward_schools.16665,POINT (-11.908207777999962 7.519778636000069),SLE_Prim_0015,N.I.Primary School,Bonthe,Bum,Lanje,SLE03020205,Primary School,7.51977864,-11.90820778,Needs Validation - STEWARD Project,SLE03020205,Bum,Bonthe,15
sle_educ_pt_steward_schools.16666,POINT (-11.931557789999943 7.504029972000069),SLE_Prim_0016,R.C. Primary School,Bonthe,Bum,Lanje,SLE03020205,Primary School,7.50402997,-11.93155779,Needs Validation - STEWARD Project,SLE03020205,Bum,Bonthe,16
sle_educ_pt_steward_schools.16667,POINT (-11.920791182999949 7.530599404000043),SLE_Prim_0017,R.C. Primary School,Bonthe,Bum,Lanje,SLE03020205,Primary School,7.5305994,-11.92079118,Needs Validation - STEWARD Project,SLE03020205,Bum,Bonthe,17
sle_educ_pt_steward_schools.16668,POINT (-12.00573074099998 7.4147056050000515),SLE_Prim_0018,Methodist Primary School,Bonthe,Bum,Torma,SLE03020207,Primary School,7.4147056,-12.00573074,Needs Validation - STEWARD Project,SLE03020207,Bum,Bonthe,18
sle_educ_pt_steward_schools.16669,POINT (-12.008744922999938 7.414626533000046),SLE_Prim_0019,R.C. Primary School,Bonthe,Bum,Torma,SLE03020207,Primary School,7.41462653,-12.00874492,Needs Validation - STEWARD Project,SLE03020207,Bum,Bonthe,19
sle_educ_pt_steward_schools.16670,POINT (-11.942447976999972 7.3778579730000615),SLE_Prim_0020,Islamic Call Society Primary School,Bonthe,Bum,Yargre,SLE03020208,Primary School,7.37785797,-11.94244798,Needs Validation - STEWARD Project,SLE03020208,Bum,Bonthe,20
sle_educ_pt_steward_schools.16671,POINT (-11.94185375099994 7.3701015000000325),SLE_Prim_0021,R.C. Primary School,Bonthe,Bum,Yargre,SLE03020208,Primary School,7.3701015,-11.94185375,Needs Validation - STEWARD Project,SLE03020208,Bum,Bonthe,21
sle_educ_pt_steward_schools.16672,POINT (-11.947725015999936 7.4663036410000245),SLE_Prim_0022,Methodist Primary School,Bonthe,Bum,Gbondubum,SLE03020209,Primary School,7.46630364,-11.94772502,Needs Validation - STEWARD Project,SLE03020209,Bum,Bonthe,22
sle_educ_pt_steward_schools.16673,POINT (-11.96856166899994 7.479769151000028),SLE_Prim_0023,Islamic Primary School,Bonthe,Bum,Yawma,SLE03020209,Primary School,7.47976915,-11.96856167,Needs Validation - STEWARD Project,SLE03020209,Bum,Bonthe,23
sle_educ_pt_steward_schools.16674,POINT (-12.299764409999966 7.784317394000027),SLE_Seco_0024,Imperri Secondary School - Moriba Town,Bonthe,Imperri,Babum,SLE03020401,Secondary School,7.78431739,-12.29976441,Needs Validation - STEWARD Project,SLE03020401,Imperri,Bonthe,24
sle_educ_pt_steward_schools.16675,POINT (-12.303072189999966 7.787013090000073),SLE_Seco_0025,Islamic Call Society Secondary School - Nyorkovulahun,Bonthe,Imperri,Babum,SLE03020401,Secondary School,7.78701309,-12.30307219,Needs Validation - STEWARD Project,SLE03020401,Imperri,Bonthe,25
sle_educ_pt_steward_schools.16676,POINT (-12.296717108999928 7.783394380000061),SLE_Scho_0026,Moriba -Town,Moyamba,Lower Banta,Ndendemoya,SLE03020401,School,7.78339438,-12.29671711,Needs Validation - STEWARD Project,SLE03020401,Imperri,Bonthe,26
sle_educ_pt_steward_schools.16677,POINT (-12.298888180999938 7.7909803040000725),SLE_Prim_0027,Adagorvie Memorial Pre & Primary School - Nyorkovulahun,Bonthe,Imperri,Babum,SLE03020401,Primary School,7.7909803,-12.29888818,Needs Validation - STEWARD Project,SLE03020401,Imperri,Bonthe,27
sle_educ_pt_steward_schools.16678,POINT (-12.311468625999964 7.763193357000034),SLE_Prim_0028,Ahmadiyya Muslim Primary School,Bonthe,Imperri,Babum,SLE03020401,Primary School,7.76319336,-12.31146863,Needs Validation - STEWARD Project,SLE03020401,Imperri,Bonthe,28
sle_educ_pt_steward_schools.16679,POINT (-12.298363852999955 7.789386642000068),SLE_Prim_0029,Ahmadiyya Muslim Primary School - Mbellebu,Bonthe,Imperri,Babum,SLE03020401,Primary School,7.78938664,-12.29836385,Needs Validation - STEWARD Project,SLE03020401,Imperri,Bonthe,29
sle_educ_pt_steward_schools.16680,POINT (-12.303072189999966 7.787013090000073),SLE_Prim_0030,Islamic Call Society Primary School - Nyorkovulahun,Bonthe,Imperri,Babum,SLE03020401,Primary School,7.78701309,-12.30307219,Needs Validation - STEWARD Project,SLE03020401,Imperri,Bonthe,30
sle_educ_pt_steward_schools.16681,POINT (-12.309200124999961 7.760910967000029),SLE_Prim_0031,Kankalay Islamic Primary School - Mogbwemo,Bonthe,Imperri,Babum,SLE03020401,Primary School,7.76091097,-12.30920012,Needs Validation - STEWARD Project,SLE03020401,Imperri,Bonthe,31
sle_educ_pt_steward_schools.16682,POINT (-12.299094655999966 7.788451569000074),SLE_Prim_0032,Saint James Roman Catholic Primary School - Mbellebu,Bonthe,Imperri,Babum,SLE03020401,Primary School,7.78845157,-12.29909466,Needs Validation - STEWARD Project,SLE03020401,Imperri,Bonthe,32
sle_educ_pt_steward_schools.16683,POINT (-12.367339500999947 7.782266564000054),SLE_Prim_0033,United Brethren Church Primary School - Gbangbaia,Bonthe,Imperri,Babum,SLE03020401,Primary School,7.78226656,-12.3673395,Needs Validation - STEWARD Project,SLE03020401,Imperri,Bonthe,33
sle_educ_pt_steward_schools.16684,POINT (-12.310605786999929 7.76495895100004),SLE_Prim_0034,United Brethren Church Primary School- Mogbwemo,Bonthe,Imperri,Babum,SLE03020401,Primary School,7.76495895,-12.31060579,Needs Validation - STEWARD Project,SLE03020401,Imperri,Bonthe,34
sle_educ_pt_steward_schools.16685,POINT (-12.308576033999941 7.75647938700007),SLE_Scho_0035,Forum for African Women Educationalist School - Mogbwemo,Bonthe,Imperri,Babum,SLE03020403,School,7.75647939,-12.30857603,Needs Validation - STEWARD Project,SLE03020403,Imperri,Bonthe,35
sle_educ_pt_steward_schools.16686,POINT (-12.306689314999971 7.695411352000065),SLE_Prim_0036,Kanakalay Islamic Primary School - Mbelleh A (Yangatoke),Bonthe,Imperri,Bigo,SLE03020403,Primary School,7.69541135,-12.30668932,Needs Validation - STEWARD Project,SLE03020403,Imperri,Bonthe,36
sle_educ_pt_steward_schools.16687,POINT (-12.276063522999948 7.6642341560000204),SLE_Prim_0037,Kankalay Islamic Primary School - Kanga,Bonthe,Imperri,Bigo,SLE03020403,Primary School,7.66423416,-12.27606352,Needs Validation - STEWARD Project,SLE03020403,Imperri,Bonthe,37
sle_educ_pt_steward_schools.16688,POINT (-12.304498793999926 7.696599366000044),SLE_Prim_0038,Roman Catholic Primary School - Mbelleh A (Yangatoke),Bonthe,Imperri,Bigo,SLE03020403,Primary School,7.69659937,-12.30449879,Needs Validation - STEWARD Project,SLE03020403,Imperri,Bonthe,38
sle_educ_pt_steward_schools.16689,POINT (-12.301717340999971 7.652188204000026),SLE_Prim_0039,Roman Catholic Primary School - Nyandehun,Bonthe,Imperri,Bigo,SLE03020403,Primary School,7.6521882,-12.30171734,Needs Validation - STEWARD Project,SLE03020403,Imperri,Bonthe,39
sle_educ_pt_steward_schools.16690,POINT (-12.309299876999944 7.699430699000061),SLE_Prim_0040,United Brethren Church Priamry School - Madina,Bonthe,Imperri,Bigo,SLE03020403,Primary School,7.6994307,-12.30929988,Needs Validation - STEWARD Project,SLE03020403,Imperri,Bonthe,40
sle_educ_pt_steward_schools.16691,POINT (-12.311510743999975 7.709375163000061),SLE_Prim_0041,United Brethren Church Primary School - Gbangbama,Bonthe,Imperri,Bigo,SLE03020403,Primary School,7.70937516,-12.31151074,Needs Validation - STEWARD Project,SLE03020403,Imperri,Bonthe,41
sle_educ_pt_steward_schools.16692,POINT (-12.274260939999976 7.66568653500002),SLE_Prim_0042,United Brethren Church Primary School - Mokaba,Bonthe,Imperri,Bigo,SLE03020403,Primary School,7.66568654,-12.27426094,Needs Validation - STEWARD Project,SLE03020403,Imperri,Bonthe,42
sle_educ_pt_steward_schools.16693,POINT (-12.339833412999951 7.596029949000069),SLE_Scho_0043,Mesima,Bonthe,Imperri,Moimaligie,SLE03020405,School,7.59602995,-12.33983341,Needs Validation - STEWARD Project,SLE03020405,Imperri,Bonthe,43
sle_educ_pt_steward_schools.16694,POINT (-12.321533920999968 7.640691385000025),SLE_Prim_0044,Islamic Call Society Primary School - Teissor,Bonthe,Imperri,Moimaligie,SLE03020405,Primary School,7.64069138,-12.32153392,Needs Validation - STEWARD Project,SLE03020405,Imperri,Bonthe,44
sle_educ_pt_steward_schools.16695,POINT (-12.307677102999946 7.578220479000038),SLE_Prim_0045,Kankalay Islamic Primary School Yarg Keiga,Bonthe,Imperri,Moimaligie,SLE03020405,Primary School,7.57822048,-12.3076771,Needs Validation - STEWARD Project,SLE03020405,Imperri,Bonthe,45
sle_educ_pt_steward_schools.16696,POINT (-12.337360326999942 7.572592847000067),SLE_Prim_0046,Roman Catholic Primary School - Yargoi,Bonthe,Imperri,Moimaligie,SLE03020405,Primary School,7.57259285,-12.33736033,Needs Validation - STEWARD Project,SLE03020405,Imperri,Bonthe,46
sle_educ_pt_steward_schools.16697,POINT (-12.331799007999962 7.648896567000065),SLE_Prim_0047,United Brethren Church Primary School - Victoria,Bonthe,Imperri,Moimaligie,SLE03020405,Primary School,7.64889657,-12.33179901,Needs Validation - STEWARD Project,SLE03020405,Imperri,Bonthe,47
sle_educ_pt_steward_schools.16698,POINT (-12.384771145999935 7.645317341000066),SLE_Prim_0048,St. Michael Primary School R.C.,Bonthe,Imperri,Sokrapan,SLE03020406,Primary School,7.64531734,-12.38477115,Needs Validation - STEWARD Project,SLE03020406,Imperri,Bonthe,48
sle_educ_pt_steward_schools.16699,POINT (-12.288497785999937 7.483522524000023),SLE_Prim_0049,C.O.R.M. Primary School,Bonthe,Jong,Basiaka,SLE03020501,Primary School,7.48352252,-12.28849779,Needs Validation - STEWARD Project,SLE03020501,Jong,Bonthe,49
sle_educ_pt_steward_schools.16700,POINT (-12.219384910999963 7.47778783800004),SLE_Prim_0050,Community Primary School,Bonthe,Jong,Basiaka,SLE03020501,Primary School,7.47778784,-12.21938491,Needs Validation - STEWARD Project,SLE03020501,Jong,Bonthe,50
sle_educ_pt_steward_schools.16701,POINT (-12.199635612999941 7.491333161000057),SLE_Prim_0051,R.C. Primary School,Bonthe,Jong,Basiaka,SLE03020501,Primary School,7.49133316,-12.19963561,Needs Validation - STEWARD Project,SLE03020501,Jong,Bonthe,51
sle_educ_pt_steward_schools.16702,POINT (-12.251224350999962 7.502356698000028),SLE_Prim_0052,S.L.U.I. M. Primary School,Bonthe,Jong,Basiaka,SLE03020501,Primary School,7.5023567,-12.25122435,Needs Validation - STEWARD Project,SLE03020501,Jong,Bonthe,52
sle_educ_pt_steward_schools.16703,POINT (-12.182759361999956 7.6130911000000765),SLE_Seco_0053,Timbo (A) Centennial Secondary School,Bonthe,Jong,Bayengbe,SLE03020502,Secondary School,7.6130911,-12.18275936,Needs Validation - STEWARD Project,SLE03020502,Jong,Bonthe,53
sle_educ_pt_steward_schools.16704,POINT (-12.17926409599994 7.613068350000049),SLE_Prim_0054,Fawe Primary School,Bonthe,Jong,Bayengbe,SLE03020502,Primary School,7.61306835,-12.1792641,Needs Validation - STEWARD Project,SLE03020502,Jong,Bonthe,54
sle_educ_pt_steward_schools.16705,POINT (-12.173199585999953 7.61128504900006),SLE_Prim_0055,I.C.S Primary School and Secondary School,Bonthe,Jong,Bayengbe,SLE03020502,Primary School,7.61128505,-12.17319959,Needs Validation - STEWARD Project,SLE03020502,Jong,Bonthe,55
sle_educ_pt_steward_schools.16706,POINT (-12.18169520899994 7.611033211000063),SLE_Prim_0056,U.B.C. Primary School,Bonthe,Jong,Bayengbe,SLE03020502,Primary School,7.61103321,-12.18169521,Needs Validation - STEWARD Project,SLE03020502,Jong,Bonthe,56
sle_educ_pt_steward_schools.16707,POINT (-12.153990498999974 7.560771694000039),SLE_Prim_0057,Segbwema (A) B.N.D.E.C. School,Bonthe,Jong,Beyinga,SLE03020503,Primary School,7.56077169,-12.1539905,Needs Validation - STEWARD Project,SLE03020503,Jong,Bonthe,57
sle_educ_pt_steward_schools.16708,POINT (-12.189435551999964 7.548569225000051),SLE_Prim_0058,U.B.C. Primary School,Bonthe,Jong,Beyinga,SLE03020503,Primary School,7.54856922,-12.18943555,Needs Validation - STEWARD Project,SLE03020503,Jong,Bonthe,58
sle_educ_pt_steward_schools.16709,POINT (-12.143407048999961 7.614125308000041),SLE_Prim_0059,Lauwa (D) Primary School,Bonthe,Jong,Falewuja,SLE03020504,Primary School,7.61412531,-12.14340705,Needs Validation - STEWARD Project,SLE03020504,Jong,Bonthe,59
sle_educ_pt_steward_schools.16710,POINT (-12.144289603999937 7.617591460000028),SLE_Prim_0060,Luawa (A) I.C.Islamic Primary School,Bonthe,Jong,Falewuja,SLE03020504,Primary School,7.61759146,-12.1442896,Needs Validation - STEWARD Project,SLE03020504,Jong,Bonthe,60
sle_educ_pt_steward_schools.16711,POINT (-12.14771096499993 7.613720006000051),SLE_Prim_0061,R.C. Primary School,Bonthe,Jong,Falewuja,SLE03020504,Primary School,7.61372001,-12.14771096,Needs Validation - STEWARD Project,SLE03020504,Jong,Bonthe,61
sle_educ_pt_steward_schools.16712,POINT (-12.110363469999982 7.619760453000026),SLE_Prim_0062,Semabu ( C) R.C. Primary School,Bonthe,Jong,Falewuja,SLE03020504,Primary School,7.61976045,-12.11036347,Needs Validation - STEWARD Project,SLE03020504,Jong,Bonthe,62
sle_educ_pt_steward_schools.16713,POINT (-12.101881938999952 7.644837639000059),SLE_Prim_0063,St. Thomas Primary School/Church,Bonthe,Jong,Falewuja,SLE03020504,Primary School,7.64483764,-12.10188194,Needs Validation - STEWARD Project,SLE03020504,Jong,Bonthe,63
sle_educ_pt_steward_schools.16714,POINT (-12.149898101999952 7.659423607000065),SLE_Prim_0064,U.B.C. Primary School,Bonthe,Jong,Falewuja,SLE03020504,Primary School,7.65942361,-12.1498981,Needs Validation - STEWARD Project,SLE03020504,Jong,Bonthe,64
sle_educ_pt_steward_schools.16715,POINT (-12.143723428999976 7.614208708000035),SLE_Prim_0065,U.B.C. Primary School - Manse,Bonthe,Jong,Falewuja,SLE03020504,Primary School,7.61420871,-12.14372343,Needs Validation - STEWARD Project,SLE03020504,Jong,Bonthe,65
sle_educ_pt_steward_schools.16716,POINT (-12.21366502199993 7.67050269300006),SLE_Prim_0066,Mosavie (B) D.E.C. Priamry School,Bonthe,Jong,Kumabeh - Kwe,SLE03020505,Primary School,7.67050269,-12.21366502,Needs Validation - STEWARD Project,SLE03020505,Jong,Bonthe,66
sle_educ_pt_steward_schools.16717,POINT (-12.280304669999964 7.592218415000048),SLE_Prim_0067,Community Primary School,Bonthe,Jong,Landi - Ngere,SLE03020506,Primary School,7.59221842,-12.28030467,Needs Validation - STEWARD Project,SLE03020506,Jong,Bonthe,67
sle_educ_pt_steward_schools.16718,POINT (-12.246305848999953 7.669222125000033),SLE_Prim_0068,U.B.C. Primary School,Bonthe,Jong,Landi - Ngere,SLE03020506,Primary School,7.66922212,-12.24630585,Needs Validation - STEWARD Project,SLE03020506,Jong,Bonthe,68
sle_educ_pt_steward_schools.16719,POINT (-12.218753234999951 7.605011200000035),SLE_Prim_0069,U.B.C. Primary School,Bonthe,Jong,Landi - Ngere,SLE03020506,Primary School,7.6050112,-12.21875324,Needs Validation - STEWARD Project,SLE03020506,Jong,Bonthe,69
sle_educ_pt_steward_schools.16720,POINT (-12.207331250999971 7.641765581000072),SLE_Prim_0070,U.B.C. Primary School,Bonthe,Jong,Landi - Ngere,SLE03020506,Primary School,7.64176558,-12.20733125,Needs Validation - STEWARD Project,SLE03020506,Jong,Bonthe,70
sle_educ_pt_steward_schools.16721,POINT (-12.25955640899997 7.542310395000072),SLE_Prim_0071,United Methodist Primary School Bo-Njeibui,Bonthe,Jong,Tucker - Nyambe,SLE03020508,Primary School,7.5423104,-12.25955641,Needs Validation - STEWARD Project,SLE03020508,Jong,Bonthe,71
sle_educ_pt_steward_schools.16722,POINT (-11.972538137999948 7.528146135000043),SLE_Prim_0072,U.B.C. Primary School,Bonthe,Kpanda Kemo,Bewoni,SLE03020602,Primary School,7.52814614,-11.97253814,Needs Validation - STEWARD Project,SLE03020602,Kpanda Kemo,Bonthe,72
sle_educ_pt_steward_schools.16723,POINT (-12.064423759999954 7.668055114000026),SLE_Prim_0073,R.C. Primary School,Bonthe,Kpanda Kemo,Gbonge,SLE03020603,Primary School,7.66805511,-12.06442376,Needs Validation - STEWARD Project,SLE03020603,Kpanda Kemo,Bonthe,73
sle_educ_pt_steward_schools.16724,POINT (-12.064423759999954 7.668055114000026),SLE_Prim_0074,R.C. Primary School,Bonthe,Kpanda Kemo,Gbonge,SLE03020603,Primary School,7.66805511,-12.06442376,Needs Validation - STEWARD Project,SLE03020603,Kpanda Kemo,Bonthe,74
sle_educ_pt_steward_schools.16725,POINT (-12.01463605999993 7.531889208000052),SLE_Prim_0075,U.B.C. Primary School,Bonthe,Kpanda Kemo,Senjehun,SLE03020604,Primary School,7.53188921,-12.01463606,Needs Validation - STEWARD Project,SLE03020604,Kpanda Kemo,Bonthe,75
sle_educ_pt_steward_schools.16726,POINT (-12.035937457999978 7.574258840000027),SLE_Prim_0076,U.B.C. Primary School,Bonthe,Kpanda Kemo,Taokunor,SLE03020606,Primary School,7.57425884,-12.03593746,Needs Validation - STEWARD Project,SLE03020606,Kpanda Kemo,Bonthe,76
sle_educ_pt_steward_schools.16727,POINT (-11.970299815999965 7.320298689000026),SLE_Prim_0077,Saint Patrick Primary School -  Blama,Bonthe,Kwamebai Krim,Kwako Lanteh,SLE03020702,Primary School,7.32029869,-11.97029982,Needs Validation - STEWARD Project,SLE03020702,Kwamebai Krim,Bonthe,77
sle_educ_pt_steward_schools.16728,POINT (-11.981582070999934 7.207688434000033),SLE_Prim_0078,"United Britheren Church Primary School, Kpanguma",Bonthe,Kwamebai Krim,Massa Settie,SLE03020703,Primary School,7.20768843,-11.98158207,Needs Validation - STEWARD Project,SLE03020703,Kwamebai Krim,Bonthe,78
sle_educ_pt_steward_schools.16729,POINT (-12.016335632999926 7.24652973700006),SLE_Prim_0079,"Unted Bretheren Church Pruimay School, Tei",Bonthe,Kwamebai Krim,Tun - Tun Sullay,SLE03020706,Primary School,7.24652974,-12.01633563,Needs Validation - STEWARD Project,SLE03020706,Kwamebai Krim,Bonthe,79
sle_educ_pt_steward_schools.16730,POINT (-11.963772348999953 7.266137362000052),SLE_Prim_0080,United Bretheren Church Pri. School - Benduma,Bonthe,Kwamebai Krim,Yike Karbay,SLE03020707,Primary School,7.26613736,-11.96377235,Needs Validation - STEWARD Project,SLE03020707,Kwamebai Krim,Bonthe,80
sle_educ_pt_steward_schools.16731,POINT (-12.228860650999934 7.448039430000051),SLE_Prim_0081,Saint Joseph's Primary School-Baoma,Bonthe,Nongoba Bullom,Baoma,SLE03020801,Primary School,7.44803943,-12.22886065,Needs Validation - STEWARD Project,SLE03020801,Nongoba Bullom,Bonthe,81
sle_educ_pt_steward_schools.16732,POINT (-12.315844432999938 7.414382901000067),SLE_Scho_0082,Mesima,Bonthe,Nongoba Bullom,Bullom,SLE03020803,School,7.4143829,-12.31584443,Needs Validation - STEWARD Project,SLE03020803,Nongoba Bullom,Bonthe,82
sle_educ_pt_steward_schools.16733,POINT (-12.28125414599998 7.386604143000056),SLE_Prim_0083,Children of Redemption Ministry Primary,Bonthe,Nongoba Bullom,Bullom,SLE03020803,Primary School,7.38660414,-12.28125415,Needs Validation - STEWARD Project,SLE03020803,Nongoba Bullom,Bonthe,83
sle_educ_pt_steward_schools.16734,POINT (-12.319935864999934 7.418957079000052),SLE_Prim_0084,District Education Committ Primary School,Bonthe,Nongoba Bullom,Bullom,SLE03020803,Primary School,7.41895708,-12.31993586,Needs Validation - STEWARD Project,SLE03020803,Nongoba Bullom,Bonthe,84
sle_educ_pt_steward_schools.16735,POINT (-12.147521816999927 7.363127590000033),SLE_Prim_0085,Patricia Kabba Memorial Primary School -  Dukor,Bonthe,Nongoba Bullom,Gbangbassa,SLE03020805,Primary School,7.36312759,-12.14752182,Needs Validation - STEWARD Project,SLE03020805,Nongoba Bullom,Bonthe,85
sle_educ_pt_steward_schools.16736,POINT (-12.263314786999956 7.377675537000073),SLE_Prim_0086,Saint Theresa's Primary School - Gbap,Bonthe,Nongoba Bullom,Gbap,SLE03020806,Primary School,7.37767554,-12.26331479,Needs Validation - STEWARD Project,SLE03020806,Nongoba Bullom,Bonthe,86
sle_educ_pt_steward_schools.16737,POINT (-12.115405237999937 7.3516825720000725),SLE_Prim_0087,"Bonthe District Education Committee Primary School, -Hahun",Bonthe,Nongoba Bullom,Hahun,SLE03020807,Primary School,7.35168257,-12.11540524,Needs Validation - STEWARD Project,SLE03020807,Nongoba Bullom,Bonthe,87
sle_educ_pt_steward_schools.16738,POINT (-12.131487024999956 7.266551482000068),SLE_Prim_0088,"Islamic Call Society Primary School, Mina",Bonthe,Nongoba Bullom,Kessie,SLE03020808,Primary School,7.26655148,-12.13148702,Needs Validation - STEWARD Project,SLE03020808,Nongoba Bullom,Bonthe,88
sle_educ_pt_steward_schools.16739,POINT (-12.741229673999953 7.624164579000023),SLE_Prim_0089,UMC Primary School,Bonthe,Sitta,Kamai,SLE03020903,Primary School,7.62416458,-12.74122967,Needs Validation - STEWARD Project,SLE03020903,Sittia,Bonthe,89
sle_educ_pt_steward_schools.16740,POINT (-12.70406124799996 7.622025604000044),SLE_Prim_0090,UMC Primary School,Bonthe,Sitta,Kwalloh,SLE03020904,Primary School,7.6220256,-12.70406125,Needs Validation - STEWARD Project,SLE03020904,Sittia,Bonthe,90
sle_educ_pt_steward_schools.16741,POINT (-12.601152887999945 7.636452387000077),SLE_Scho_0091,Jemaika,Bonthe,Sitta,Saama,SLE03020907,School,7.63645239,-12.60115289,Needs Validation - STEWARD Project,SLE03020907,Sittia,Bonthe,91
sle_educ_pt_steward_schools.16742,POINT (-12.082020324999974 7.615911347000065),SLE_Prim_0092,D.E.C. Primary School,Bonthe,Sogbeni,Bakumba,SLE03021001,Primary School,7.61591135,-12.08202032,Needs Validation - STEWARD Project,SLE03021001,Sogbeni,Bonthe,92
sle_educ_pt_steward_schools.16743,POINT (-12.072991139999942 7.584085936000065),SLE_Prim_0093,R.C. Primary School,Bonthe,Sogbeni,Bakumba,SLE03021001,Primary School,7.58408594,-12.07299114,Needs Validation - STEWARD Project,SLE03021001,Sogbeni,Bonthe,93
sle_educ_pt_steward_schools.16744,POINT (-12.079527869999936 7.605568327000071),SLE_Prim_0094,Wesleyan Primary School,Bonthe,Sogbeni,Bakumba,SLE03021001,Primary School,7.60556833,-12.07952787,Needs Validation - STEWARD Project,SLE03021001,Sogbeni,Bonthe,94
sle_educ_pt_steward_schools.16745,POINT (-12.099464810999962 7.544900177000045),SLE_Prim_0095,U.B.C. Primary School,Bonthe,Sogbeni,Beyorgboh,SLE03021002,Primary School,7.54490018,-12.09946481,Needs Validation - STEWARD Project,SLE03021002,Sogbeni,Bonthe,95
sle_educ_pt_steward_schools.16746,POINT (-12.072245950999957 7.47530824100005),SLE_Prim_0096,R.C. Primary School,Bonthe,Sogbeni,Ndopie,SLE03021003,Primary School,7.47530824,-12.07224595,Needs Validation - STEWARD Project,SLE03021003,Sogbeni,Bonthe,96
sle_educ_pt_steward_schools.16747,POINT (-12.102866929999948 7.612871219000056),SLE_Prim_0097,National Islamic Primary School,Bonthe,Sogbeni,Pengor,SLE03021004,Primary School,7.61287122,-12.10286693,Needs Validation - STEWARD Project,SLE03021004,Sogbeni,Bonthe,97
sle_educ_pt_steward_schools.16748,POINT (-12.091529640999966 7.565843412000049),SLE_Prim_0098,National Islamic Primary School,Bonthe,Sogbeni,Pengor,SLE03021004,Primary School,7.56584341,-12.09152964,Needs Validation - STEWARD Project,SLE03021004,Sogbeni,Bonthe,98
sle_educ_pt_steward_schools.16749,POINT (-12.150734260999968 7.433665630000064),SLE_Prim_0099,D.E.C. Primary School,Bonthe,Yawbeko,Baryege,SLE03021101,Primary School,7.43366563,-12.15073426,Needs Validation - STEWARD Project,SLE03021101,Yawbeko,Bonthe,99
sle_educ_pt_steward_schools.16750,POINT (-12.147410027999967 7.457812563000061),SLE_Prim_0100,R.C. Primary School,Bonthe,Yawbeko,Hahun,SLE03021103,Primary School,7.45781256,-12.14741003,Needs Validation - STEWARD Project,SLE03021103,Yawbeko,Bonthe,100
sle_educ_pt_steward_schools.16751,POINT (-12.113189664999936 7.403066374000048),SLE_Prim_0101,D.E.C. Primary School,Bonthe,Yawbeko,Ketaway,SLE03021103,Primary School,7.40306637,-12.11318966,Needs Validation - STEWARD Project,SLE03021103,Yawbeko,Bonthe,101
sle_educ_pt_steward_schools.16752,POINT (-12.130070147999959 7.437796734000074),SLE_Prim_0102,New Life Primary School,Bonthe,Yawbeko,Ketaway,SLE03021103,Primary School,7.43779673,-12.13007015,Needs Validation - STEWARD Project,SLE03021103,Yawbeko,Bonthe,102
sle_educ_pt_steward_schools.16753,POINT (-12.12970605299995 7.4422846460000756),SLE_Prim_0103,U.B.C. Primary School,Bonthe,Yawbeko,Ketaway,SLE03021103,Primary School,7.44228465,-12.12970605,Needs Validation - STEWARD Project,SLE03021103,Yawbeko,Bonthe,103
sle_educ_pt_steward_schools.16754,POINT (-12.172295562999977 7.499759671000049),SLE_Prim_0104,D.E.C. Primary School,Bonthe,Yawbeko,Mobuli,SLE03021104,Primary School,7.49975967,-12.17229556,Needs Validation - STEWARD Project,SLE03021104,Yawbeko,Bonthe,104
sle_educ_pt_steward_schools.16755,POINT (-12.079441171999974 7.415322662000051),SLE_Prim_0105,D.E.C. Primary School,Bonthe,Yawbeko,Yorma,SLE03021105,Primary School,7.41532266,-12.07944117,Needs Validation - STEWARD Project,SLE03021105,Yawbeko,Bonthe,105
sle_educ_pt_steward_schools.16756,POINT (-12.512765529999967 7.526481775000036),SLE_Seco_0106,Bonthe Sec. School,Bonthe,Bonthe Town,Bonthe Urban,SLE03029101,Secondary School,7.52648178,-12.51276553,Needs Validation - STEWARD Project,SLE03029101,Bonthe Urban,Bonthe,106
sle_educ_pt_steward_schools.16757,POINT (-12.501605347999941 7.5254603010000665),SLE_Scho_0107,Minnie Mull Memorial School,Bonthe,Bonthe Town,Bonthe Urban,SLE03029101,School,7.5254603,-12.50160535,Needs Validation - STEWARD Project,SLE03029101,Bonthe Urban,Bonthe,107
sle_educ_pt_steward_schools.16758,POINT (-12.50895978099993 7.525285282000027),SLE_Prim_0108,Islamic Call Society Primary School,Bonthe,Bonthe Town,Bonthe Urban,SLE03029101,Primary School,7.52528528,-12.50895978,Needs Validation - STEWARD Project,SLE03029101,Bonthe Urban,Bonthe,108
sle_educ_pt_steward_schools.16759,POINT (-12.503555257999949 7.524956284000041),SLE_Prim_0109,U.M.C. Primary School,Bonthe,Bonthe Town,Bonthe Urban,SLE03029101,Primary School,7.52495628,-12.50355526,Needs Validation - STEWARD Project,SLE03029101,Bonthe Urban,Bonthe,109
sle_educ_pt_steward_schools.16760,POINT (-12.541315362999967 7.938603370000067),SLE_Seco_0110,Ahmad. Muslim Secondary School (Temporal Shelter),Moyamba,Bagruwa,Sembehun,SLE03030109,Secondary School,7.93860337,-12.54131536,Needs Validation - STEWARD Project,SLE03030109,Bagruwa,Moyamba,110
sle_educ_pt_steward_schools.16761,POINT (-12.66497951699995 8.234397053000066),SLE_Seco_0111,Ahmadiyya Secondary Schoool,Moyamba,Bumpeh,Greema,SLE03030203,Secondary School,8.23439705,-12.66497952,Needs Validation - STEWARD Project,SLE03030203,Bumpeh,Moyamba,111
sle_educ_pt_steward_schools.16762,POINT (-12.683885508999936 8.226787882000053),SLE_Seco_0112,Walter Schutz Memorial Secondary School (U.M.C),Moyamba,Bumpeh,Saiama,SLE03030211,Secondary School,8.22678788,-12.68388551,Needs Validation - STEWARD Project,SLE03030211,Bumpeh,Moyamba,112
sle_educ_pt_steward_schools.16763,POINT (-12.093774960999951 8.035238523000032),SLE_Seco_0113,Agriculture Sec. School Dass,Moyamba,Dasse,Mano,SLE03030307,Secondary School,8.03523852,-12.09377496,Needs Validation - STEWARD Project,SLE03030307,Dasse,Moyamba,113
sle_educ_pt_steward_schools.16764,POINT (-12.339605656999936 8.233176370000024),SLE_Seco_0114,Fakunya Agric & Voc Sec. School,Moyamba,Fakunya,Gandorhun -Central,SLE03030402,Secondary School,8.23317637,-12.33960566,Needs Validation - STEWARD Project,SLE03030402,Fakunya,Moyamba,114
sle_educ_pt_steward_schools.16765,POINT (-12.225008592999927 8.130943779000063),SLE_Scho_0115,U.M.C. School,Moyamba,Fakunya,Njawa,SLE03030407,School,8.13094378,-12.22500859,Needs Validation - STEWARD Project,SLE03030407,Fakunya,Moyamba,115
sle_educ_pt_steward_schools.16766,POINT (-12.217896396999947 8.313468639000064),SLE_Seco_0116,Moyamba Junction Sec. School,Moyamba,Fakunya,To-Ndambalenga,SLE03030410,Secondary School,8.31346864,-12.2178964,Needs Validation - STEWARD Project,SLE03030410,Fakunya,Moyamba,116
sle_educ_pt_steward_schools.16767,POINT (-12.307772413999942 8.157243870000059),SLE_Scho_0117,U.M.C School,Moyamba,Fakunya,Tullu,SLE03030411,School,8.15724387,-12.30777241,Needs Validation - STEWARD Project,SLE03030411,Fakunya,Moyamba,117
sle_educ_pt_steward_schools.16768,POINT (-12.432209851999971 8.160699814000054),SLE_Seco_0118,Harford School for Girls,Moyamba,Kaiyamba,Koromboya,SLE03030602,Secondary School,8.16069981,-12.43220985,Needs Validation - STEWARD Project,SLE03030602,Kaiyamba,Moyamba,118
sle_educ_pt_steward_schools.16769,POINT (-12.442724312999928 8.164480489000027),SLE_Seco_0119,Kulafy Rashideen Secondary School,Moyamba,Kaiyamba,Koromboya,SLE03030602,Secondary School,8.16448049,-12.44272431,Needs Validation - STEWARD Project,SLE03030602,Kaiyamba,Moyamba,119
sle_educ_pt_steward_schools.16770,POINT (-12.454858257999945 8.161773641000025),SLE_Seco_0120,St. Michaels Secondary School,Moyamba,Kaiyamba,Koromboya,SLE03030602,Secondary School,8.16177364,-12.45485826,Needs Validation - STEWARD Project,SLE03030602,Kaiyamba,Moyamba,120
sle_educ_pt_steward_schools.16771,POINT (-12.371141548999958 8.117195687000049),SLE_Scho_0121,West Africa Memorial (W.A.M.),Moyamba,Kaiyamba,Lungili,SLE03030604,School,8.11719569,-12.37114155,Needs Validation - STEWARD Project,SLE03030604,Kaiyamba,Moyamba,121
sle_educ_pt_steward_schools.16772,POINT (-12.424637943999926 8.166218293000043),SLE_Seco_0122,Fergusson Secondary School,Moyamba,Kaiyamba,Mosoe,SLE03030606,Secondary School,8.16621829,-12.42463794,Needs Validation - STEWARD Project,SLE03030606,Kaiyamba,Moyamba,122
sle_educ_pt_steward_schools.16773,POINT (-12.055994085999941 8.095107169000073),SLE_Scho_0123,U.M.C. School,Moyamba,Kanajie,Ngiegombu,SLE03030703,School,8.09510717,-12.05599409,Needs Validation - STEWARD Project,SLE03030703,Kamajei,Moyamba,123
sle_educ_pt_steward_schools.16774,POINT (-11.997830348999969 8.151555759000075),SLE_Scho_0124,U.M.C. School,Moyamba,Kanajie,Ngiegombu,SLE03030703,School,8.15155576,-11.99783035,Needs Validation - STEWARD Project,SLE03030703,Kamajei,Moyamba,124
sle_educ_pt_steward_schools.16775,POINT (-11.994342424999957 8.127489052000044),SLE_Scho_0125,U.M.C. School,Moyamba,Kanajie,Ngiegombu,SLE03030703,School,8.12748905,-11.99434242,Needs Validation - STEWARD Project,SLE03030703,Kamajei,Moyamba,125
sle_educ_pt_steward_schools.16776,POINT (-11.970518770999945 8.136146612000061),SLE_Scho_0126,Foya - Kortuwa,Moyamba,Kanajie,Tawovehun,SLE03030706,School,8.13614661,-11.97051877,Needs Validation - STEWARD Project,SLE03030706,Kamajei,Moyamba,126
sle_educ_pt_steward_schools.16777,POINT (-12.499137562999977 8.245625154000038),SLE_Scho_0127,Magbenka,Moyamba,Kongbora,Mokerewo,SLE03030804,School,8.24562515,-12.49913756,Needs Validation - STEWARD Project,SLE03030804,Kongbora,Moyamba,127
sle_educ_pt_steward_schools.16778,POINT (-12.101738969999928 8.217471758000045),SLE_Scho_0128,Mosenge,Moyamba,Kori,Zone Four,SLE03030904,School,8.21747176,-12.10173897,Needs Validation - STEWARD Project,SLE03030904,Kori,Moyamba,128
sle_educ_pt_steward_schools.16779,POINT (-12.056511267999952 8.120579259000067),SLE_Seco_0129,University Secondary School,Moyamba,Kori,Zone Seven,SLE03030907,Secondary School,8.12057926,-12.05651127,Needs Validation - STEWARD Project,SLE03030907,Kori,Moyamba,129
sle_educ_pt_steward_schools.16780,POINT (-12.014724680999961 8.108530793000057),SLE_Scho_0130,U.M.C. School,Moyamba,Kanajie,Ngiegombu,SLE03031003,School,8.10853079,-12.01472468,Needs Validation - STEWARD Project,SLE03031003,Kowa,Moyamba,130
sle_educ_pt_steward_schools.16781,POINT (-12.040893130999962 8.05450071000007),SLE_Scho_0131,Kai Yehun,Moyamba,Kowa,Mosumana,SLE03031003,School,8.05450071,-12.04089313,Needs Validation - STEWARD Project,SLE03031003,Kowa,Moyamba,131
sle_educ_pt_steward_schools.16782,POINT (-12.339707058999977 7.840675653000062),SLE_Scho_0132,Mberebu,Moyamba,Lower Banta,Gbangbatoke,SLE03031102,School,7.84067565,-12.33970706,Needs Validation - STEWARD Project,SLE03031102,Lower Banta,Moyamba,132
sle_educ_pt_steward_schools.16783,POINT (-12.276734309999938 7.76321615300003),SLE_Scho_0133,Kpetama,Moyamba,Lower Banta,Ndendemoya,SLE03031106,School,7.76321615,-12.27673431,Needs Validation - STEWARD Project,SLE03031106,Lower Banta,Moyamba,133
sle_educ_pt_steward_schools.16784,POINT (-12.295780469999954 7.786758788000043),SLE_Prim_0134,United Brethren Church Primay School - Moriba Town,Bonthe,Imperri,Babum,SLE03031106,Primary School,7.78675879,-12.29578047,Needs Validation - STEWARD Project,SLE03031106,Lower Banta,Moyamba,134
sle_educ_pt_steward_schools.16785,POINT (-12.88030493499997 8.136175756000057),SLE_Scho_0135,Mocharlie,Moyamba,Ribbi,Mobureh,SLE03031206,School,8.13617576,-12.88030494,Needs Validation - STEWARD Project,SLE03031206,Ribbi,Moyamba,135
sle_educ_pt_steward_schools.16786,POINT (-12.740965580999955 8.297750011000062),SLE_Seco_0136,Rabbi Secondary School,Moyamba,Ribbi,Motoni,SLE03031207,Secondary School,8.29775001,-12.74096558,Needs Validation - STEWARD Project,SLE03031207,Ribbi,Moyamba,136
sle_educ_pt_steward_schools.16787,POINT (-12.780375111999945 8.29146355100005),SLE_Scho_0137,Foya,Moyamba,Ribbi,Motoni,SLE03031207,School,8.29146355,-12.78037511,Needs Validation - STEWARD Project,SLE03031207,Ribbi,Moyamba,137
sle_educ_pt_steward_schools.16788,POINT (-12.134835184999929 7.754025412000033),SLE_Seco_0138,J.J. Momerial High School,Moyamba,Upper Banta,Bei-Kelleh,SLE03031401,Secondary School,7.75402541,-12.13483518,Needs Validation - STEWARD Project,SLE03031401,Upper Banta,Moyamba,138
sle_educ_pt_steward_schools.16789,POINT (-12.18317781299993 7.722897211000031),SLE_Scho_0139,Morisine,Moyamba,Upper Banta,Bei-Kelleh,SLE03031401,School,7.72289721,-12.18317781,Needs Validation - STEWARD Project,SLE03031401,Upper Banta,Moyamba,139
sle_educ_pt_steward_schools.16790,POINT (-11.11650872599995 7.767991387000052),SLE_Prim_0140,Islamic Welfare Primary School (Sanjun,Kenema,Dama,Dakowa,SLE01020101,Primary School,7.76799139,-11.11650873,Needs Validation - STEWARD Project,SLE01020101,Dama,Kenema,140
sle_educ_pt_steward_schools.16791,POINT (-11.141189857999962 7.770100470000045),SLE_Prim_0141,Kenema District Community Primary School,Kenema,Dama,Dakowa,SLE01020101,Primary School,7.77010047,-11.14118986,Needs Validation - STEWARD Project,SLE01020101,Dama,Kenema,141
sle_educ_pt_steward_schools.16792,POINT (-11.121943045999956 7.788881991000039),SLE_Prim_0142,Kenema District Community Primary School,Kenema,Dama,Dakowa,SLE01020101,Primary School,7.78888199,-11.12194305,Needs Validation - STEWARD Project,SLE01020101,Dama,Kenema,142
sle_educ_pt_steward_schools.16793,POINT (-11.13762597899995 7.796531967000021),SLE_Prim_0143,Kenema District Community Primary School Jao,Kenema,Dama,Dakowa,SLE01020101,Primary School,7.79653197,-11.13762598,Needs Validation - STEWARD Project,SLE01020101,Dama,Kenema,143
sle_educ_pt_steward_schools.16794,POINT (-11.080495190999955 7.756092015000036),SLE_Prim_0144,National Islamic Primary School (Patama),Kenema,Dama,Dakowa,SLE01020101,Primary School,7.75609202,-11.08049519,Needs Validation - STEWARD Project,SLE01020101,Dama,Kenema,144
sle_educ_pt_steward_schools.16795,POINT (-11.094412099999943 7.716646347000051),SLE_Prim_0145,Sevenday Adventist Primary School (Kanga),Kenema,Dama,Dakowa,SLE01020101,Primary School,7.71664635,-11.0944121,Needs Validation - STEWARD Project,SLE01020101,Dama,Kenema,145
sle_educ_pt_steward_schools.16796,POINT (-11.135962013999972 7.804422851000027),SLE_Prim_0146,Young Muslim Primary School (Basara),Kenema,Dama,Dakowa,SLE01020101,Primary School,7.80442285,-11.13596201,Needs Validation - STEWARD Project,SLE01020101,Dama,Kenema,146
sle_educ_pt_steward_schools.16797,POINT (-11.17390796999996 7.79820025500004),SLE_Prim_0147,Gofor,Kenema,Dama,Danyadejo,SLE01020102,Primary School,7.79820026,-11.17390797,Needs Validation - STEWARD Project,SLE01020102,Dama,Kenema,147
sle_educ_pt_steward_schools.16798,POINT (-11.143276469999932 7.7257149240000444),SLE_Prim_0148,Islamic Welfare Primary School (Diame),Kenema,Dama,Danyadejo,SLE01020102,Primary School,7.72571492,-11.14327647,Needs Validation - STEWARD Project,SLE01020102,Dama,Kenema,148
sle_educ_pt_steward_schools.16799,POINT (-11.152432795999971 7.75316695600003),SLE_Prim_0149,Kenema District Education Committee Primary SchoolBobama,Kenema,Dama,Danyadejo,SLE01020102,Primary School,7.75316696,-11.1524328,Needs Validation - STEWARD Project,SLE01020102,Dama,Kenema,149
sle_educ_pt_steward_schools.16800,POINT (-11.12495888199993 7.824275016000058),SLE_Prim_0150,Konjo Islamic Primary School Konjo,Kenema,Dama,Dassama,SLE01020103,Primary School,7.82427502,-11.12495888,Needs Validation - STEWARD Project,SLE01020103,Dama,Kenema,150
sle_educ_pt_steward_schools.16801,POINT (-11.12489611999996 7.826200767000046),SLE_Prim_0151,Mission Community Primary School,Kenema,Dama,Dassama,SLE01020103,Primary School,7.82620077,-11.12489612,Needs Validation - STEWARD Project,SLE01020103,Dama,Kenema,151
sle_educ_pt_steward_schools.16802,POINT (-11.076072464999982 7.864402334000033),SLE_Prim_0152,Seventh Day adventist Primary School Konia,Kenema,Dama,Dassama,SLE01020103,Primary School,7.86440233,-11.07607246,Needs Validation - STEWARD Project,SLE01020103,Dama,Kenema,152
sle_educ_pt_steward_schools.16803,POINT (-11.116555887999937 7.845786414000031),SLE_Prim_0153,Young Muslim Primary School (Majihun),Kenema,Dama,Dassama,SLE01020103,Primary School,7.84578641,-11.11655589,Needs Validation - STEWARD Project,SLE01020103,Dama,Kenema,153
sle_educ_pt_steward_schools.16804,POINT (-11.186426559999973 7.7143055670000535),SLE_Prim_0154,Kenema District Committee Primary School Gao,Kenema,Dama,Fowai,SLE01020104,Primary School,7.71430557,-11.18642656,Needs Validation - STEWARD Project,SLE01020104,Dama,Kenema,154
sle_educ_pt_steward_schools.16805,POINT (-11.194607288999975 7.75420802900004),SLE_Prim_0155,Kenema District Education Committee Primary School (Kpandebu),Kenema,Dama,Fowai,SLE01020104,Primary School,7.75420803,-11.19460729,Needs Validation - STEWARD Project,SLE01020104,Dama,Kenema,155
sle_educ_pt_steward_schools.16806,POINT (-11.186259758999938 7.769834698000068),SLE_Prim_0156,Roman Catholic Primary School (Korma),Kenema,Dama,Fowai,SLE01020104,Primary School,7.7698347,-11.18625976,Needs Validation - STEWARD Project,SLE01020104,Dama,Kenema,156
sle_educ_pt_steward_schools.16807,POINT (-11.059894732999965 7.802657750000037),SLE_Prim_0157,Kenema District Education Committee Primary School,Kenema,Dama,Klajie,SLE01020105,Primary School,7.80265775,-11.05989473,Needs Validation - STEWARD Project,SLE01020105,Dama,Kenema,157
sle_educ_pt_steward_schools.16808,POINT (-11.077885355999967 7.8315063700000564),SLE_Prim_0158,National Islamic Primary School (Saama),Kenema,Dama,Klajie,SLE01020105,Primary School,7.83150637,-11.07788536,Needs Validation - STEWARD Project,SLE01020105,Dama,Kenema,158
sle_educ_pt_steward_schools.16809,POINT (-11.103044274999945 7.814160909000066),SLE_Prim_0159,Young Muslim Primary School (Golahun),Kenema,Dama,Klajie,SLE01020105,Primary School,7.81416091,-11.10304428,Needs Validation - STEWARD Project,SLE01020105,Dama,Kenema,159
sle_educ_pt_steward_schools.16810,POINT (-11.24007667799998 7.6737954540000715),SLE_Prim_0160,Al - Qudus Islamic Primary School (Looppa),Kenema,Dama,Lower Dabor,SLE01020106,Primary School,7.67379545,-11.24007668,Needs Validation - STEWARD Project,SLE01020106,Dama,Kenema,160
sle_educ_pt_steward_schools.16811,POINT (-11.252665969999953 7.653889259000039),SLE_Prim_0161,Al - Qudus Islamic Primary School Ngihun,Kenema,Dama,Lower Dabor,SLE01020106,Primary School,7.65388926,-11.25266597,Needs Validation - STEWARD Project,SLE01020106,Dama,Kenema,161
sle_educ_pt_steward_schools.16812,POINT (-11.203671898999971 7.707437669000058),SLE_Prim_0162,Al-qudu Islamic Primary School (Baoma),Kenema,Dama,Lower Dabor,SLE01020106,Primary School,7.70743767,-11.2036719,Needs Validation - STEWARD Project,SLE01020106,Dama,Kenema,162
sle_educ_pt_steward_schools.16813,POINT (-11.183831664999957 7.6871466710000504),SLE_Prim_0163,Kulaf-Rashidin Primary School (Yibama),Kenema,Dama,Lower Dabor,SLE01020106,Primary School,7.68714667,-11.18383166,Needs Validation - STEWARD Project,SLE01020106,Dama,Kenema,163
sle_educ_pt_steward_schools.16814,POINT (-11.225127609999959 7.719176881000067),SLE_Prim_0164,Non formal Primary School,Kenema,Dama,Lower Dabor,SLE01020106,Primary School,7.71917688,-11.22512761,Needs Validation - STEWARD Project,SLE01020106,Dama,Kenema,164
sle_educ_pt_steward_schools.16815,POINT (-11.033152825999935 7.86029125400006),SLE_Prim_0165,Ahmadiyya Muslima Promary School (Tawahun),Kenema,Dama,Upper Dapoor,SLE01020107,Primary School,7.86029125,-11.03315283,Needs Validation - STEWARD Project,SLE01020107,Dama,Kenema,165
sle_educ_pt_steward_schools.16816,POINT (-11.048325661999968 7.850354869000057),SLE_Prim_0166,Community Primary School (Vaama),Kenema,Dama,Upper Dapoor,SLE01020107,Primary School,7.85035487,-11.04832566,Needs Validation - STEWARD Project,SLE01020107,Dama,Kenema,166
sle_educ_pt_steward_schools.16817,POINT (-11.036995604999959 7.813454038000032),SLE_Prim_0167,Roman Catholic Primary School (Madina),Kenema,Dama,Upper Dapoor,SLE01020107,Primary School,7.81345404,-11.0369956,Needs Validation - STEWARD Project,SLE01020107,Dama,Kenema,167
sle_educ_pt_steward_schools.16818,POINT (-11.011805458999959 7.826954292000039),SLE_Prim_0168,Roman Catholic Primary School (tokpombu),Kenema,Dama,Upper Dapoor,SLE01020107,Primary School,7.82695429,-11.01180546,Needs Validation - STEWARD Project,SLE01020107,Dama,Kenema,168
sle_educ_pt_steward_schools.16819,POINT (-11.209607270999982 8.252498083000035),SLE_Prim_0169,Kenema District Education Community Primary School,Kenema,Dodo,Bambara,SLE01020201,Primary School,8.25249808,-11.20960727,Needs Validation - STEWARD Project,SLE01020201,Dodo,Kenema,169
sle_educ_pt_steward_schools.16820,POINT (-11.20007972999997 8.240980603000025),SLE_Prim_0170,Roman Catholic Primary School,Kenema,Dodo,Bambara,SLE01020201,Primary School,8.2409806,-11.20007973,Needs Validation - STEWARD Project,SLE01020201,Dodo,Kenema,170
sle_educ_pt_steward_schools.16821,POINT (-11.169552120999981 8.154849627000033),SLE_Prim_0171,United Methodist Church Primary School (Dodo),Kenema,Dodo,Bonya,SLE01020202,Primary School,8.15484963,-11.16955212,Needs Validation - STEWARD Project,SLE01020202,Dodo,Kenema,171
sle_educ_pt_steward_schools.16822,POINT (-11.228039339999953 8.17345963400004),SLE_Prim_0172,Al-Qudus Muslim Primary,Kenema,Dodo,Bundoryama,SLE01020203,Primary School,8.17345963,-11.22803934,Needs Validation - STEWARD Project,SLE01020203,Dodo,Kenema,172
sle_educ_pt_steward_schools.16823,POINT (-11.214727105999941 8.203921714000046),SLE_Prim_0173,Roman Catholic Primary School,Kenema,Dodo,Bundoryama,SLE01020203,Primary School,8.20392171,-11.21472711,Needs Validation - STEWARD Project,SLE01020203,Dodo,Kenema,173
sle_educ_pt_steward_schools.16824,POINT (-11.205211264999946 8.16457291200004),SLE_Prim_0174,Sierra Leone Muslim Brotherhool Primary School,Kenema,Dodo,Bundoryama,SLE01020203,Primary School,8.16457291,-11.20521126,Needs Validation - STEWARD Project,SLE01020203,Dodo,Kenema,174
sle_educ_pt_steward_schools.16825,POINT (-11.19979318399993 8.272799476000046),SLE_Prim_0175,Sierra Leone Muslima Brothehood Primary,Kenema,Dodo,Gorama,SLE01020204,Primary School,8.27279948,-11.19979318,Needs Validation - STEWARD Project,SLE01020204,Dodo,Kenema,175
sle_educ_pt_steward_schools.16826,POINT (-11.165411063999954 8.234543548000033),SLE_Prim_0176,Al-Quadu Islamic Primary School,Kenema,Dodo,Karteh,SLE01020205,Primary School,8.23454355,-11.16541106,Needs Validation - STEWARD Project,SLE01020205,Dodo,Kenema,176
sle_educ_pt_steward_schools.16827,POINT (-11.181285874999958 8.235524203000068),SLE_Prim_0177,Al-Qudus Muslim Primary,Kenema,Dodo,Karteh,SLE01020205,Primary School,8.2355242,-11.18128588,Needs Validation - STEWARD Project,SLE01020205,Dodo,Kenema,177
sle_educ_pt_steward_schools.16828,POINT (-11.235106629999962 8.098262637000062),SLE_Prim_0178,Al-Qudus Muslim Primary,Kenema,Dodo,Korgay,SLE01020206,Primary School,8.09826264,-11.23510663,Needs Validation - STEWARD Project,SLE01020206,Dodo,Kenema,178
sle_educ_pt_steward_schools.16829,POINT (-11.17951999099995 8.056811401000061),SLE_Prim_0179,Kenema Distruct Education Community Primary School,Kenema,Dodo,Korgay,SLE01020206,Primary School,8.0568114,-11.17951999,Needs Validation - STEWARD Project,SLE01020206,Dodo,Kenema,179
sle_educ_pt_steward_schools.16830,POINT (-11.236856917999944 8.127737745000047),SLE_Prim_0180,Roman Catholic Primary SchoolGuala,Kenema,Dodo,Korgay,SLE01020206,Primary School,8.12773774,-11.23685692,Needs Validation - STEWARD Project,SLE01020206,Dodo,Kenema,180
sle_educ_pt_steward_schools.16831,POINT (-11.193302262999964 8.086485623000044),SLE_Prim_0181,Sierra Leone Muslim Brotherhool Primary School,Kenema,Dodo,Korgay,SLE01020206,Primary School,8.08648562,-11.19330226,Needs Validation - STEWARD Project,SLE01020206,Dodo,Kenema,181
sle_educ_pt_steward_schools.16832,POINT (-11.209961156999952 8.12754138300005),SLE_Prim_0182,Al-Qudus Muslim Primary,Kenema,Dodo,Seiwor,SLE01020207,Primary School,8.12754138,-11.20996116,Needs Validation - STEWARD Project,SLE01020207,Dodo,Kenema,182
sle_educ_pt_steward_schools.16833,POINT (-11.16850586199996 8.118870039000058),SLE_Prim_0183,National Islamic Primary School,Kenema,Dodo,Seiwor,SLE01020207,Primary School,8.11887004,-11.16850586,Needs Validation - STEWARD Project,SLE01020207,Dodo,Kenema,183
sle_educ_pt_steward_schools.16834,POINT (-11.213057815999946 8.104990354000051),SLE_Prim_0184,Roman Catholic Primary School,Kenema,Dodo,Seiwor,SLE01020207,Primary School,8.10499035,-11.21305782,Needs Validation - STEWARD Project,SLE01020207,Dodo,Kenema,184
sle_educ_pt_steward_schools.16835,POINT (-11.138592249999931 7.6934400430000665),SLE_Prim_0185,Seventh-Day Adventist Primary School (Gbeworbu),Kenema,Dama,Danyadejo,SLE01020301,Primary School,7.69344004,-11.13859225,Needs Validation - STEWARD Project,SLE01020301,Gaura,Kenema,185
sle_educ_pt_steward_schools.16836,POINT (-11.14022199599998 7.685938115000056),SLE_Prim_0186,Islamic Welfare Primary School-Tikonko,Kenema,Gaura,Giebu,SLE01020301,Primary School,7.68593812,-11.140222,Needs Validation - STEWARD Project,SLE01020301,Gaura,Kenema,186
sle_educ_pt_steward_schools.16837,POINT (-11.121175494999932 7.680654055000048),SLE_Prim_0187,K.D.E.C. Primary School - Venima,Kenema,Gaura,Giebu,SLE01020301,Primary School,7.68065406,-11.1211755,Needs Validation - STEWARD Project,SLE01020301,Gaura,Kenema,187
sle_educ_pt_steward_schools.16838,POINT (-11.052722126999981 7.691735273000063),SLE_Seco_0188,Amadiyya Secondary School - Joru,Kenema,Gaura,Joru,SLE01020302,Secondary School,7.69173527,-11.05272213,Needs Validation - STEWARD Project,SLE01020302,Gaura,Kenema,188
sle_educ_pt_steward_schools.16839,POINT (-11.045486628999981 7.7098138540000605),SLE_Prim_0189,Mothodist Primary School (Kambuna),Kenema,Dama,Dakowa,SLE01020302,Primary School,7.70981385,-11.04548663,Needs Validation - STEWARD Project,SLE01020302,Gaura,Kenema,189
sle_educ_pt_steward_schools.16840,POINT (-11.02115503799996 7.673786643000028),SLE_Prim_0190,Methodist primary School - Guabu,Kenema,Gaura,Joru,SLE01020302,Primary School,7.67378664,-11.02115504,Needs Validation - STEWARD Project,SLE01020302,Gaura,Kenema,190
sle_educ_pt_steward_schools.16841,POINT (-11.049000124999964 7.686600227000042),SLE_Prim_0191,Methodist Primary School - Joru,Kenema,Gaura,Joru,SLE01020302,Primary School,7.68660023,-11.04900012,Needs Validation - STEWARD Project,SLE01020302,Gaura,Kenema,191
sle_educ_pt_steward_schools.16842,POINT (-11.058193955999968 7.689503287000036),SLE_Prim_0192,Naional Isamic Primary School - Joru,Kenema,Gaura,Joru,SLE01020302,Primary School,7.68950329,-11.05819396,Needs Validation - STEWARD Project,SLE01020302,Gaura,Kenema,192
sle_educ_pt_steward_schools.16843,POINT (-11.029090365999934 7.640616956000031),SLE_Prim_0193,National Islamic Primary School - Jagbwema,Kenema,Gaura,Joru,SLE01020302,Primary School,7.64061696,-11.02909037,Needs Validation - STEWARD Project,SLE01020302,Gaura,Kenema,193
sle_educ_pt_steward_schools.16844,POINT (-11.048271037999939 7.6250226180000595),SLE_Prim_0194,National Islamic Primary School - Njala,Kenema,Gaura,Joru,SLE01020302,Primary School,7.62502262,-11.04827104,Needs Validation - STEWARD Project,SLE01020302,Gaura,Kenema,194
sle_educ_pt_steward_schools.16845,POINT (-11.102227211999946 7.6399054470000465),SLE_Prim_0195,K.D.E.C. Priamry School - Kpuwabu II,Kenema,Gaura,Kokoru,SLE01020303,Primary School,7.63990545,-11.10222721,Needs Validation - STEWARD Project,SLE01020303,Gaura,Kenema,195
sle_educ_pt_steward_schools.16846,POINT (-11.116441394999981 7.630271985000036),SLE_Prim_0196,Methodist Primary School - Kokory,Kenema,Gaura,Kokoru,SLE01020303,Primary School,7.63027198,-11.1164414,Needs Validation - STEWARD Project,SLE01020303,Gaura,Kenema,196
sle_educ_pt_steward_schools.16847,POINT (-11.119377253999971 7.632164979000038),SLE_Prim_0197,National Islamic Primary School - Kokoru,Kenema,Gaura,Kokoru,SLE01020303,Primary School,7.63216498,-11.11937725,Needs Validation - STEWARD Project,SLE01020303,Gaura,Kenema,197
sle_educ_pt_steward_schools.16848,POINT (-11.07960864499995 7.661783104000051),SLE_Prim_0198,National Islamic Primary School Perrie,Kenema,Gaura,Kokoru,SLE01020303,Primary School,7.6617831,-11.07960864,Needs Validation - STEWARD Project,SLE01020303,Gaura,Kenema,198
sle_educ_pt_steward_schools.16849,POINT (-11.001690017999977 7.792992876000028),SLE_Prim_0199,National Islamic Primary School - Ngieyewiema,Kenema,Gaura,Mendekelema,SLE01020304,Primary School,7.79299288,-11.00169002,Needs Validation - STEWARD Project,SLE01020304,Gaura,Kenema,199
sle_educ_pt_steward_schools.16850,POINT (-10.97884944699996 7.762561682000069),SLE_Prim_0200,R.C.Primary School - Mendekelema,Kenema,Gaura,Mendekelema,SLE01020304,Primary School,7.76256168,-10.97884945,Needs Validation - STEWARD Project,SLE01020304,Gaura,Kenema,200
sle_educ_pt_steward_schools.16851,POINT (-10.999117540999976 7.789867867000055),SLE_Prim_0201,K.D.E.C. Primary School - Sembehun,Kenema,Gaura,Sembehun,SLE01020304,Primary School,7.78986787,-10.99911754,Needs Validation - STEWARD Project,SLE01020304,Gaura,Kenema,201
sle_educ_pt_steward_schools.16852,POINT (-11.016451105999977 7.752061061000063),SLE_Prim_0202,K.D.E.C. Primary School - Nyadehun,Kenema,Gaura,Sandaru,SLE01020305,Primary School,7.75206106,-11.01645111,Needs Validation - STEWARD Project,SLE01020305,Gaura,Kenema,202
sle_educ_pt_steward_schools.16853,POINT (-10.978131689999941 7.678416577000064),SLE_Prim_0203,K.D.E.C. Primary School - Lalehun,Kenema,Gaura,Sembehun,SLE01020306,Primary School,7.67841658,-10.97813169,Needs Validation - STEWARD Project,SLE01020306,Gaura,Kenema,203
sle_educ_pt_steward_schools.16854,POINT (-10.999163279999948 7.730192695000028),SLE_Prim_0204,Nat. Islamic Primary School - Jauivulahun,Kenema,Gaura,Sembehun,SLE01020306,Primary School,7.7301927,-10.99916328,Needs Validation - STEWARD Project,SLE01020306,Gaura,Kenema,204
sle_educ_pt_steward_schools.16855,POINT (-11.430810489999942 8.474227080000048),SLE_Seco_0205,Gorama Mende Agriculjural Vocational Secondary School,Kenema,Gorama Mende,Biatong,SLE01020401,Secondary School,8.47422708,-11.43081049,Needs Validation - STEWARD Project,SLE01020401,Gorama Mende,Kenema,205
sle_educ_pt_steward_schools.16856,POINT (-11.46870013199998 8.455878582000025),SLE_Prim_0206,Isamic Primary School,Kenema,Gorama Mende,Biatong,SLE01020401,Primary School,8.45587858,-11.46870013,Needs Validation - STEWARD Project,SLE01020401,Gorama Mende,Kenema,206
sle_educ_pt_steward_schools.16857,POINT (-11.433639136999943 8.475113200000067),SLE_Prim_0207,Islamic Pirmary School,Kenema,Gorama Mende,Biatong,SLE01020401,Primary School,8.4751132,-11.43363914,Needs Validation - STEWARD Project,SLE01020401,Gorama Mende,Kenema,207
sle_educ_pt_steward_schools.16858,POINT (-11.405547813999931 8.512097752000045),SLE_Prim_0208,Islamic Priamry School,Kenema,Gorama Mende,Biatong,SLE01020401,Primary School,8.51209775,-11.40554781,Needs Validation - STEWARD Project,SLE01020401,Gorama Mende,Kenema,208
sle_educ_pt_steward_schools.16859,POINT (-11.453476429999967 8.53410225600004),SLE_Prim_0209,Islamic Primary School,Kenema,Gorama Mende,Biatong,SLE01020401,Primary School,8.53410226,-11.45347643,Needs Validation - STEWARD Project,SLE01020401,Gorama Mende,Kenema,209
sle_educ_pt_steward_schools.16860,POINT (-11.375095018999957 8.496830354000053),SLE_Prim_0210,National Islamic Primary School,Kenema,Gorama Mende,Biatong,SLE01020401,Primary School,8.49683035,-11.37509502,Needs Validation - STEWARD Project,SLE01020401,Gorama Mende,Kenema,210
sle_educ_pt_steward_schools.16861,POINT (-11.46972948399997 8.455031618000021),SLE_Prim_0211,U.M.C. Primary School,Kenema,Gorama Mende,Biatong,SLE01020401,Primary School,8.45503162,-11.46972948,Needs Validation - STEWARD Project,SLE01020401,Gorama Mende,Kenema,211
sle_educ_pt_steward_schools.16862,POINT (-11.440123679999942 8.46987617700006),SLE_Prim_0212,United Methodist Primary School,Kenema,Gorama Mende,Biatong,SLE01020401,Primary School,8.46987618,-11.44012368,Needs Validation - STEWARD Project,SLE01020401,Gorama Mende,Kenema,212
sle_educ_pt_steward_schools.16863,POINT (-11.26845521499996 8.45621460700005),SLE_Prim_0213,Ahmadiyya Primary School,Kenema,Gorama Mende,Famanjo,SLE01020402,Primary School,8.45621461,-11.26845522,Needs Validation - STEWARD Project,SLE01020402,Gorama Mende,Kenema,213
sle_educ_pt_steward_schools.16864,POINT (-11.299890327999947 8.506284090000065),SLE_Prim_0214,Ahmadiyya Primary School - Fomaya,Kenema,Gorama Mende,Famanjo,SLE01020402,Primary School,8.50628409,-11.29989033,Needs Validation - STEWARD Project,SLE01020402,Gorama Mende,Kenema,214
sle_educ_pt_steward_schools.16865,POINT (-11.265635710999959 8.38509754200004),SLE_Prim_0215,Amadiyya Primary  School - Langrama,Kenema,Gorama Mende,Famanjo,SLE01020402,Primary School,8.38509754,-11.26563571,Needs Validation - STEWARD Project,SLE01020402,Gorama Mende,Kenema,215
sle_educ_pt_steward_schools.16866,POINT (-11.289749814999936 8.48345875800004),SLE_Prim_0216,Islamic  Primary School-Punduru,Kenema,Gorama Mende,Famanjo,SLE01020402,Primary School,8.48345876,-11.28974982,Needs Validation - STEWARD Project,SLE01020402,Gorama Mende,Kenema,216
sle_educ_pt_steward_schools.16867,POINT (-11.289364243999955 8.388729521000073),SLE_Prim_0217,Islamic Primary School - Gbarama,Kenema,Gorama Mende,Famanjo,SLE01020402,Primary School,8.38872952,-11.28936424,Needs Validation - STEWARD Project,SLE01020402,Gorama Mende,Kenema,217
sle_educ_pt_steward_schools.16868,POINT (-11.320192231999954 8.474791922000065),SLE_Prim_0218,Kenema District Education Community Primary School - Laborya,Kenema,Gorama Mende,Famanjo,SLE01020402,Primary School,8.47479192,-11.32019223,Needs Validation - STEWARD Project,SLE01020402,Gorama Mende,Kenema,218
sle_educ_pt_steward_schools.16869,POINT (-11.286710373999938 8.48837540900007),SLE_Prim_0219,United Methodist Church Priamry School - Punduru,Kenema,Gorama Mende,Famanjo,SLE01020402,Primary School,8.48837541,-11.28671037,Needs Validation - STEWARD Project,SLE01020402,Gorama Mende,Kenema,219
sle_educ_pt_steward_schools.16870,POINT (-11.265610434999928 8.418269202000033),SLE_Prim_0220,United Methodist Primary School - Simbaru,Kenema,Gorama Mende,Famanjo,SLE01020402,Primary School,8.4182692,-11.26561044,Needs Validation - STEWARD Project,SLE01020402,Gorama Mende,Kenema,220
sle_educ_pt_steward_schools.16871,POINT (-11.334235546999935 8.427944940000032),SLE_Scho_0221,S.L.M.P. School,Kenema,Gorama Mende,Kaklawa,SLE01020403,School,8.42794494,-11.33423555,Needs Validation - STEWARD Project,SLE01020403,Gorama Mende,Kenema,221
sle_educ_pt_steward_schools.16872,POINT (-11.332795664999935 8.37840636900006),SLE_Scho_0222,S.L.M.P. School,Kenema,Gorama Mende,Kaklawa,SLE01020403,School,8.37840637,-11.33279566,Needs Validation - STEWARD Project,SLE01020403,Gorama Mende,Kenema,222
sle_educ_pt_steward_schools.16873,POINT (-11.326445214999978 8.444241847000058),SLE_Prim_0223,Community Bosed Primary School,Kenema,Gorama Mende,Kaklawa,SLE01020403,Primary School,8.44424185,-11.32644522,Needs Validation - STEWARD Project,SLE01020403,Gorama Mende,Kenema,223
sle_educ_pt_steward_schools.16874,POINT (-11.365798475999952 8.416449448000037),SLE_Prim_0224,U.M.C. Primary School,Kenema,Gorama Mende,Kaklawa,SLE01020403,Primary School,8.41644945,-11.36579848,Needs Validation - STEWARD Project,SLE01020403,Gorama Mende,Kenema,224
sle_educ_pt_steward_schools.16875,POINT (-11.487228223999978 8.376686071000051),SLE_Prim_0225,R.C.Primary School,Kenema,Gorama Mende,Kualley,SLE01020404,Primary School,8.37668607,-11.48722822,Needs Validation - STEWARD Project,SLE01020404,Gorama Mende,Kenema,225
sle_educ_pt_steward_schools.16876,POINT (-11.545264662999955 8.51166863700007),SLE_Prim_0226,Roman Catholic Primary School,Kenema,Gorama Mende,Kualley,SLE01020404,Primary School,8.51166864,-11.54526466,Needs Validation - STEWARD Project,SLE01020404,Gorama Mende,Kenema,226
sle_educ_pt_steward_schools.16877,POINT (-11.529420070999947 8.451387855000064),SLE_Prim_0227,U.M.C. Primary School,Kenema,Gorama Mende,Kualley,SLE01020404,Primary School,8.45138786,-11.52942007,Needs Validation - STEWARD Project,SLE01020404,Gorama Mende,Kenema,227
sle_educ_pt_steward_schools.16878,POINT (-11.519667123999966 8.510488958000053),SLE_Prim_0228,U.M.C. Primary School,Kenema,Gorama Mende,Kualley,SLE01020404,Primary School,8.51048896,-11.51966712,Needs Validation - STEWARD Project,SLE01020404,Gorama Mende,Kenema,228
sle_educ_pt_steward_schools.16879,POINT (-11.514323665999939 8.480349197000066),SLE_Prim_0229,U.M.C. Primary School,Kenema,Gorama Mende,Kualley,SLE01020404,Primary School,8.4803492,-11.51432367,Needs Validation - STEWARD Project,SLE01020404,Gorama Mende,Kenema,229
sle_educ_pt_steward_schools.16880,POINT (-11.491107631999967 8.500533441000073),SLE_Prim_0230,U.M.C. Primary School,Kenema,Gorama Mende,Kualley,SLE01020404,Primary School,8.50053344,-11.49110763,Needs Validation - STEWARD Project,SLE01020404,Gorama Mende,Kenema,230
sle_educ_pt_steward_schools.16881,POINT (-11.447901319999971 8.399010374000056),SLE_Prim_0231,U.M.C. Primary School,Kenema,Gorama Mende,Kualley,SLE01020404,Primary School,8.39901037,-11.44790132,Needs Validation - STEWARD Project,SLE01020404,Gorama Mende,Kenema,231
sle_educ_pt_steward_schools.16882,POINT (-11.327162844999975 8.020298542000035),SLE_Prim_0232,Kankalay Primary School,Kenema,Kandu Lekppeama,Borley,SLE01020501,Primary School,8.02029854,-11.32716284,Needs Validation - STEWARD Project,SLE01020501,Kandu Leppiama,Kenema,232
sle_educ_pt_steward_schools.16883,POINT (-11.37531840899993 8.021496759000058),SLE_Prim_0233,R.C.Primary School,Kenema,Kandu Lekppeama,Borley,SLE01020501,Primary School,8.02149676,-11.37531841,Needs Validation - STEWARD Project,SLE01020501,Kandu Leppiama,Kenema,233
sle_educ_pt_steward_schools.16884,POINT (-11.331168039999966 8.094272356000033),SLE_Scho_0234,Palima,Kenema,Kandu Lekppeama,Gboro-Lokoma,SLE01020502,School,8.09427236,-11.33116804,Needs Validation - STEWARD Project,SLE01020502,Kandu Leppiama,Kenema,234
sle_educ_pt_steward_schools.16885,POINT (-11.310106090999966 7.970303546000025),SLE_Prim_0235,Islamic Primary School,Kenema,Kandu Lekppeama,Karga,SLE01020503,Primary School,7.97030355,-11.31010609,Needs Validation - STEWARD Project,SLE01020503,Kandu Leppiama,Kenema,235
sle_educ_pt_steward_schools.16886,POINT (-11.325070075999975 7.9678065910000555),SLE_Prim_0236,K.D.E.C. Primary School,Kenema,Kandu Lekppeama,Karga,SLE01020503,Primary School,7.96780659,-11.32507008,Needs Validation - STEWARD Project,SLE01020503,Kandu Leppiama,Kenema,236
sle_educ_pt_steward_schools.16887,POINT (-11.257925211999975 8.058872731000065),SLE_Prim_0237,Ahimadiyya Primary School,Kenema,Kandu Lekppeama,Sonie,SLE01020504,Primary School,8.05887273,-11.25792521,Needs Validation - STEWARD Project,SLE01020504,Kandu Leppiama,Kenema,237
sle_educ_pt_steward_schools.16888,POINT (-11.277019707999955 8.007617484000036),SLE_Prim_0238,Al-Qudus Islamic Primary School,Kenema,Kandu Lekppeama,Sonie,SLE01020504,Primary School,8.00761748,-11.27701971,Needs Validation - STEWARD Project,SLE01020504,Kandu Leppiama,Kenema,238
sle_educ_pt_steward_schools.16889,POINT (-11.29710240999998 7.981312474000049),SLE_Prim_0239,AL-Qudus Primary School,Kenema,Kandu Lekppeama,Sonie,SLE01020504,Primary School,7.98131247,-11.29710241,Needs Validation - STEWARD Project,SLE01020504,Kandu Leppiama,Kenema,239
sle_educ_pt_steward_schools.16890,POINT (-11.253685700999938 8.061372685000038),SLE_Prim_0240,AL-Qudus Primary School,Kenema,Kandu Lekppeama,Sonie,SLE01020504,Primary School,8.06137268,-11.2536857,Needs Validation - STEWARD Project,SLE01020504,Kandu Leppiama,Kenema,240
sle_educ_pt_steward_schools.16891,POINT (-11.28275604199996 8.000472389000038),SLE_Prim_0241,Community Primary School,Kenema,Kandu Lekppeama,Sonie,SLE01020504,Primary School,8.00047239,-11.28275604,Needs Validation - STEWARD Project,SLE01020504,Kandu Leppiama,Kenema,241
sle_educ_pt_steward_schools.16892,POINT (-11.297207268999955 8.00167568300003),SLE_Prim_0242,Primary School,Kenema,Kandu Lekppeama,Sonie,SLE01020504,Primary School,8.00167568,-11.29720727,Needs Validation - STEWARD Project,SLE01020504,Kandu Leppiama,Kenema,242
sle_educ_pt_steward_schools.16893,POINT (-11.25981203699996 7.980152991000068),SLE_Prim_0243,R.C. Church /Primary School,Kenema,Kandu Lekppeama,Sonie,SLE01020504,Primary School,7.98015299,-11.25981204,Needs Validation - STEWARD Project,SLE01020504,Kandu Leppiama,Kenema,243
sle_educ_pt_steward_schools.16894,POINT (-11.270637852999926 7.989927817000023),SLE_Prim_0244,R.C.Primary School,Kenema,Kandu Lekppeama,Sonie,SLE01020504,Primary School,7.98992782,-11.27063785,Needs Validation - STEWARD Project,SLE01020504,Kandu Leppiama,Kenema,244
sle_educ_pt_steward_schools.16895,POINT (-11.233648656999947 8.04090087000003),SLE_Prim_0245,R.C.Primary School,Kenema,Kandu Lekppeama,Sonie,SLE01020504,Primary School,8.04090087,-11.23364866,Needs Validation - STEWARD Project,SLE01020504,Kandu Leppiama,Kenema,245
sle_educ_pt_steward_schools.16896,POINT (-11.26372566699996 7.670517016000076),SLE_Prim_0246,Kenema District Education Committee Primary School (Loppa),Kenema,Dama,Lower Dabor,SLE01020601,Primary School,7.67051702,-11.26372567,Needs Validation - STEWARD Project,SLE01020601,Koya,Kenema,246
sle_educ_pt_steward_schools.16897,POINT (-11.302642224999943 7.650714707000077),SLE_Prim_0247,National Islamic Primary School,Kenema,Koya,Joi,SLE01020601,Primary School,7.65071471,-11.30264222,Needs Validation - STEWARD Project,SLE01020601,Koya,Kenema,247
sle_educ_pt_steward_schools.16898,POINT (-11.306230716999949 7.589938060000065),SLE_Prim_0248,Algudu Islamic Primary School,Kenema,Koya,Koyagbundohun,SLE01020602,Primary School,7.58993806,-11.30623072,Needs Validation - STEWARD Project,SLE01020602,Koya,Kenema,248
sle_educ_pt_steward_schools.16899,POINT (-11.292921744999944 7.557026289000021),SLE_Prim_0249,R.C. Primary School,Kenema,Koya,Koyagbundohun,SLE01020602,Primary School,7.55702629,-11.29292174,Needs Validation - STEWARD Project,SLE01020602,Koya,Kenema,249
sle_educ_pt_steward_schools.16900,POINT (-11.342201295999928 7.669762362000029),SLE_Prim_0250,R.C.Primary School,Kenema,Koya,Menima,SLE01020603,Primary School,7.66976236,-11.3422013,Needs Validation - STEWARD Project,SLE01020603,Koya,Kenema,250
sle_educ_pt_steward_schools.16901,POINT (-11.35055052399997 7.602742876000036),SLE_Prim_0251,Islamic Call Society Primary School,Kenema,Koya,Serabu,SLE01020604,Primary School,7.60274288,-11.35055052,Needs Validation - STEWARD Project,SLE01020604,Koya,Kenema,251
sle_educ_pt_steward_schools.16902,POINT (-11.290243529999941 7.608958709000035),SLE_Prim_0252,KDEC Primary School,Kenema,Koya,Upper Koya,SLE01020605,Primary School,7.60895871,-11.29024353,Needs Validation - STEWARD Project,SLE01020605,Koya,Kenema,252
sle_educ_pt_steward_schools.16903,POINT (-11.261154639999972 7.641714648000061),SLE_Prim_0253,KDEC Primary School,Kenema,Koya,Upper Koya,SLE01020605,Primary School,7.64171465,-11.26115464,Needs Validation - STEWARD Project,SLE01020605,Koya,Kenema,253
sle_educ_pt_steward_schools.16904,POINT (-11.244579074999933 7.607742310000049),SLE_Prim_0254,KDEC Primary School,Kenema,Koya,Upper Koya,SLE01020605,Primary School,7.60774231,-11.24457908,Needs Validation - STEWARD Project,SLE01020605,Koya,Kenema,254
sle_educ_pt_steward_schools.16905,POINT (-11.473114606999957 7.695274435000044),SLE_Prim_0255,Alqudus Primary School,Kenema,Langrama,Njeiwoma,SLE01020702,Primary School,7.69527444,-11.47311461,Needs Validation - STEWARD Project,SLE01020702,Langrama,Kenema,255
sle_educ_pt_steward_schools.16906,POINT (-11.48877324199998 7.666336403000059),SLE_Prim_0256,R.C.Primary School,Kenema,Langrama,Njeiwoma,SLE01020702,Primary School,7.6663364,-11.48877324,Needs Validation - STEWARD Project,SLE01020702,Langrama,Kenema,256
sle_educ_pt_steward_schools.16907,POINT (-11.07375878199997 8.280045383000072),SLE_Prim_0257,Almadiyya Primary School,Kenema,Lower Bambara,Bonya,SLE01020801,Primary School,8.28004538,-11.07375878,Needs Validation - STEWARD Project,SLE01020801,Lower Bambara,Kenema,257
sle_educ_pt_steward_schools.16908,POINT (-11.093171490999964 8.256215098000041),SLE_Prim_0258,Gbessbu Islamic Primary School,Kenema,Lower Bambara,Bonya,SLE01020801,Primary School,8.2562151,-11.09317149,Needs Validation - STEWARD Project,SLE01020801,Lower Bambara,Kenema,258
sle_educ_pt_steward_schools.16909,POINT (-11.121846422999965 8.217067910000026),SLE_Prim_0259,Guala Al-Qudus Islamic Primary School,Kenema,Lower Bambara,Bonya,SLE01020801,Primary School,8.21706791,-11.12184642,Needs Validation - STEWARD Project,SLE01020801,Lower Bambara,Kenema,259
sle_educ_pt_steward_schools.16910,POINT (-11.063917842999956 8.282844468000064),SLE_Prim_0260,Jembe Km. D.E.C. Primary School,Kenema,Lower Bambara,Bonya,SLE01020801,Primary School,8.28284447,-11.06391784,Needs Validation - STEWARD Project,SLE01020801,Lower Bambara,Kenema,260
sle_educ_pt_steward_schools.16911,POINT (-10.976484317999962 8.326146763000054),SLE_Prim_0261,Komende Community Based Primary School,Kenema,Lower Bambara,Bonya,SLE01020801,Primary School,8.32614676,-10.97648432,Needs Validation - STEWARD Project,SLE01020801,Lower Bambara,Kenema,261
sle_educ_pt_steward_schools.16912,POINT (-11.053344832999926 8.266997950000075),SLE_Prim_0262,Konjo Roman Catholic Primary School,Kenema,Lower Bambara,Bonya,SLE01020801,Primary School,8.26699795,-11.05334483,Needs Validation - STEWARD Project,SLE01020801,Lower Bambara,Kenema,262
sle_educ_pt_steward_schools.16913,POINT (-11.12973290399998 8.178192826000043),SLE_Prim_0263,Lower Bambara Secondary School,Kenema,Lower Bambara,Bonya,SLE01020801,Primary School,8.17819283,-11.1297329,Needs Validation - STEWARD Project,SLE01020801,Lower Bambara,Kenema,263
sle_educ_pt_steward_schools.16914,POINT (-11.147284880999962 8.31211680000007),SLE_Prim_0264,Mbaoma Roman Catholic Primary School,Kenema,Lower Bambara,Bonya,SLE01020801,Primary School,8.3121168,-11.14728488,Needs Validation - STEWARD Project,SLE01020801,Lower Bambara,Kenema,264
sle_educ_pt_steward_schools.16915,POINT (-11.136539949999928 8.246557938000024),SLE_Prim_0265,Njagor Ahmadiyya Muslim Primary School,Kenema,Lower Bambara,Bonya,SLE01020801,Primary School,8.24655794,-11.13653995,Needs Validation - STEWARD Project,SLE01020801,Lower Bambara,Kenema,265
sle_educ_pt_steward_schools.16916,POINT (-11.141511169999944 8.182026542000074),SLE_Prim_0266,Panguma Roman Caltholic Primary School,Kenema,Lower Bambara,Bonya,SLE01020801,Primary School,8.18202654,-11.14151117,Needs Validation - STEWARD Project,SLE01020801,Lower Bambara,Kenema,266
sle_educ_pt_steward_schools.16917,POINT (-11.130643675999977 8.180565396000077),SLE_Prim_0267,Panguma S.L.M.B. Primary School,Kenema,Lower Bambara,Bonya,SLE01020801,Primary School,8.1805654,-11.13064368,Needs Validation - STEWARD Project,SLE01020801,Lower Bambara,Kenema,267
sle_educ_pt_steward_schools.16918,POINT (-11.131892489999927 8.183379108000054),SLE_Prim_0268,Panguma U.M.C. Primary School,Kenema,Lower Bambara,Bonya,SLE01020801,Primary School,8.18337911,-11.13189249,Needs Validation - STEWARD Project,SLE01020801,Lower Bambara,Kenema,268
sle_educ_pt_steward_schools.16919,POINT (-11.06294965799998 8.326827919000038),SLE_Prim_0269,Pelewahun Roman Catholic Primary School,Kenema,Lower Bambara,Bonya,SLE01020801,Primary School,8.32682792,-11.06294966,Needs Validation - STEWARD Project,SLE01020801,Lower Bambara,Kenema,269
sle_educ_pt_steward_schools.16920,POINT (-11.007408694999981 8.279824034000058),SLE_Prim_0270,Saama Al-Qudus P. School,Kenema,Lower Bambara,Bonya,SLE01020801,Primary School,8.27982403,-11.0074087,Needs Validation - STEWARD Project,SLE01020801,Lower Bambara,Kenema,270
sle_educ_pt_steward_schools.16921,POINT (-11.007680079999943 8.279650908000065),SLE_Prim_0271,Saama Roman Caltholic Primary School,Kenema,Lower Bambara,Bonya,SLE01020801,Primary School,8.27965091,-11.00768008,Needs Validation - STEWARD Project,SLE01020801,Lower Bambara,Kenema,271
sle_educ_pt_steward_schools.16922,POINT (-11.057317009999963 8.311878216000025),SLE_Prim_0272,Venima Roman Catholic Primary School,Kenema,Lower Bambara,Bonya,SLE01020801,Primary School,8.31187822,-11.05731701,Needs Validation - STEWARD Project,SLE01020801,Lower Bambara,Kenema,272
sle_educ_pt_steward_schools.16923,POINT (-10.98981054099994 8.165029403000062),SLE_Prim_0273,Jamesi National Islamic Primary School,Kenema,Lower Bambara,Fallay,SLE01020802,Primary School,8.1650294,-10.98981054,Needs Validation - STEWARD Project,SLE01020802,Lower Bambara,Kenema,273
sle_educ_pt_steward_schools.16924,POINT (-11.060095246999936 8.16121548500007),SLE_Prim_0274,Mamboma R.C. Primary School,Kenema,Lower Bambara,Fallay,SLE01020802,Primary School,8.16121548,-11.06009525,Needs Validation - STEWARD Project,SLE01020802,Lower Bambara,Kenema,274
sle_educ_pt_steward_schools.16925,POINT (-11.082547820999935 8.173177672000065),SLE_Prim_0275,Ngiehun National Islamic Primary School,Kenema,Lower Bambara,Fallay,SLE01020802,Primary School,8.17317767,-11.08254782,Needs Validation - STEWARD Project,SLE01020802,Lower Bambara,Kenema,275
sle_educ_pt_steward_schools.16926,POINT (-11.08865205799998 8.169385679000072),SLE_Prim_0276,Ngiehun U.M.C. Primary School,Kenema,Lower Bambara,Fallay,SLE01020802,Primary School,8.16938568,-11.08865206,Needs Validation - STEWARD Project,SLE01020802,Lower Bambara,Kenema,276
sle_educ_pt_steward_schools.16927,POINT (-10.945203105999951 8.171574574000033),SLE_Prim_0277,Weima National Islamic Primary School,Kenema,Lower Bambara,Fallay,SLE01020802,Primary School,8.17157457,-10.94520311,Needs Validation - STEWARD Project,SLE01020802,Lower Bambara,Kenema,277
sle_educ_pt_steward_schools.16928,POINT (-10.94657664999994 8.166677088000029),SLE_Prim_0278,Weima R.C. Primary,Kenema,Lower Bambara,Fallay,SLE01020802,Primary School,8.16667709,-10.94657665,Needs Validation - STEWARD Project,SLE01020802,Lower Bambara,Kenema,278
sle_educ_pt_steward_schools.16929,POINT (-11.00983275599998 8.104650967000055),SLE_Prim_0279,Konia Al-Qudua Islamic Primary School,Kenema,Lower Bambara,Gboro,SLE01020803,Primary School,8.10465097,-11.00983276,Needs Validation - STEWARD Project,SLE01020803,Lower Bambara,Kenema,279
sle_educ_pt_steward_schools.16930,POINT (-11.13683804699997 7.9610189090000745),SLE_Scho_0280,Kenema District Education Committee School - Kpanderu,Kenema,Nongowa,Kagbado Kamboima,SLE01021205,School,7.96101891,-11.13683805,Needs Validation - STEWARD Project,SLE01021205,Nongowa,Kenema,280
sle_educ_pt_steward_schools.16931,POINT (-11.106188053999972 8.052485060000038),SLE_Scho_0281,Mission Road - Largo,Kenema,Nongowa,Kona Kpindibu,SLE01021208,School,8.05248506,-11.10618805,Needs Validation - STEWARD Project,SLE01021208,Nongowa,Kenema,281
sle_educ_pt_steward_schools.16932,POINT (-11.174650066999959 7.886953407000021),SLE_Prim_0282,Islamic Primary School,Kenema,Kenema Town Ship,Gbo-Kakajama  (Kissy Town),SLE01029102,Primary School,7.88695341,-11.17465007,Needs Validation - STEWARD Project,SLE01029102,Kenema Town,Kenema,282
sle_educ_pt_steward_schools.16933,POINT (-11.170592393999982 7.898092824000059),SLE_Prim_0283,Joshua Health Preparatory School Burma,Kenema,Kenema Town Ship,Gbo-Kakajama  (Kissy Town),SLE01029102,Primary School,7.89809282,-11.17059239,Needs Validation - STEWARD Project,SLE01029102,Kenema Town,Kenema,283
sle_educ_pt_steward_schools.16934,POINT (-11.174700047999977 7.893045629000028),SLE_Prim_0284,Methodist Primary School,Kenema,Kenema Town Ship,Gbo-Kakajama  (Kissy Town),SLE01029102,Primary School,7.89304563,-11.17470005,Needs Validation - STEWARD Project,SLE01029102,Kenema Town,Kenema,284
sle_educ_pt_steward_schools.16935,POINT (-11.17403305099998 7.885112596000056),SLE_Prim_0285,Arahim Islamic Primary School -  Layout,Kenema,Kenema Town Ship,Gbo-Kakajama  (Kissy Town),SLE01029103,Primary School,7.8851126,-11.17403305,Needs Validation - STEWARD Project,SLE01029103,Kenema Town,Kenema,285
sle_educ_pt_steward_schools.16936,POINT (-11.195780232999937 7.874481393000053),SLE_Seco_0286,Islamic Secondary School,Kenema,Kenema Town Ship,Gbo-Lambayama (Lambayama),SLE01029105,Secondary School,7.87448139,-11.19578023,Needs Validation - STEWARD Project,SLE01029105,Kenema Town,Kenema,286
sle_educ_pt_steward_schools.16937,POINT (-11.184944789999975 7.884495358000038),SLE_Prim_0287,Barudeen Pr. School,Kenema,Kenema Town Ship,Gbo-Kakajama  (Shimbeck),SLE01029105,Primary School,7.88449536,-11.18494479,Needs Validation - STEWARD Project,SLE01029105,Kenema Town,Kenema,287
sle_educ_pt_steward_schools.16938,POINT (-11.185098425999968 7.8844041640000455),SLE_Prim_0288,Badrudden Primary School - Sombo Street,Kenema,Kenema Town Ship,Gbo-Lambayama (Reservation/Lekpetieh),SLE01029105,Primary School,7.88440416,-11.18509843,Needs Validation - STEWARD Project,SLE01029105,Kenema Town,Kenema,288
sle_educ_pt_steward_schools.16939,POINT (-11.190507041999979 7.888904541000045),SLE_Prim_0289,Good Sheperd Home Pre-School - Turay Street,Kenema,Kenema Town Ship,Gbo-Lambayama (Reservation/Lekpetieh),SLE01029105,Primary School,7.88890454,-11.19050704,Needs Validation - STEWARD Project,SLE01029105,Kenema Town,Kenema,289
sle_educ_pt_steward_schools.16940,POINT (-11.186613374999979 7.88459511800005),SLE_Prim_0290,Methodist Pre-School -Kotoms Street,Kenema,Kenema Town Ship,Gbo-Lambayama (Reservation/Lekpetieh),SLE01029105,Primary School,7.88459512,-11.18661338,Needs Validation - STEWARD Project,SLE01029105,Kenema Town,Kenema,290
sle_educ_pt_steward_schools.16941,POINT (-11.190583456999946 7.881030998000028),SLE_Prim_0291,St. Charles Lwanga Primary School Hangha Road,Kenema,Kenema Town Ship,Gbo-Lambayama (Reservation/Lekpetieh),SLE01029105,Primary School,7.881031,-11.19058346,Needs Validation - STEWARD Project,SLE01029105,Kenema Town,Kenema,291
sle_educ_pt_steward_schools.16942,POINT (-11.19176069499997 7.880789821000064),SLE_Prim_0292,Woehrling Pre-Primary School - Kewgeh Street,Kenema,Kenema Town Ship,Gbo-Lambayama (Reservation/Lekpetieh),SLE01029105,Primary School,7.88078982,-11.1917607,Needs Validation - STEWARD Project,SLE01029105,Kenema Town,Kenema,292
sle_educ_pt_steward_schools.16943,POINT (-11.180381194999939 7.883805047000067),SLE_Seco_0293,Ansarul Secondary School,Kenema,Kenema Town Ship,Gbo-Kakajama  (Shimbeck),SLE01029106,Secondary School,7.88380505,-11.1803812,Needs Validation - STEWARD Project,SLE01029106,Kenema Town,Kenema,293
sle_educ_pt_steward_schools.16944,POINT (-11.177213258999927 7.876092947000075),SLE_Seco_0294,College Secondary School,Kenema,Kenema Town Ship,Gbo-Kakajama  (Shimbeck),SLE01029106,Secondary School,7.87609295,-11.17721326,Needs Validation - STEWARD Project,SLE01029106,Kenema Town,Kenema,294
sle_educ_pt_steward_schools.16945,POINT (-11.177176997999936 7.876093136000065),SLE_Prim_0295,Eastern Poly - Tech Primary School,Kenema,Kenema Town Ship,Gbo-Kakajama  (Kissy Town),SLE01029106,Primary School,7.87609314,-11.177177,Needs Validation - STEWARD Project,SLE01029106,Kenema Town,Kenema,295
sle_educ_pt_steward_schools.16946,POINT (-11.188033566999934 7.878829718000077),SLE_Prim_0296,Sierra Leone Church Primary School,Kenema,Kenema Town Ship,Gbo-Kakajama  (Kissy Town),SLE01029106,Primary School,7.87882972,-11.18803357,Needs Validation - STEWARD Project,SLE01029106,Kenema Town,Kenema,296
sle_educ_pt_steward_schools.16947,POINT (-11.179843311999946 7.883229335000067),SLE_Prim_0297,Ansarul Nursery School,Kenema,Kenema Town Ship,Gbo-Kakajama  (Shimbeck),SLE01029106,Primary School,7.88322934,-11.17984331,Needs Validation - STEWARD Project,SLE01029106,Kenema Town,Kenema,297
sle_educ_pt_steward_schools.16948,POINT (-11.179934911999965 7.88340964300005),SLE_Prim_0298,Ansarul Primary School,Kenema,Kenema Town Ship,Gbo-Kakajama  (Shimbeck),SLE01029106,Primary School,7.88340964,-11.17993491,Needs Validation - STEWARD Project,SLE01029106,Kenema Town,Kenema,298
sle_educ_pt_steward_schools.16949,POINT (-11.186267326999939 7.880845646000068),SLE_Prim_0299,Assembly of God Primary School,Kenema,Kenema Town Ship,Gbo-Kakajama  (Shimbeck),SLE01029106,Primary School,7.88084565,-11.18626733,Needs Validation - STEWARD Project,SLE01029106,Kenema Town,Kenema,299
sle_educ_pt_steward_schools.16950,POINT (-11.177176997999936 7.876093136000065),SLE_Prim_0300,Eastern Poly- Tech. Primary School,Kenema,Kenema Town Ship,Gbo-Kakajama  (Shimbeck),SLE01029106,Primary School,7.87609314,-11.177177,Needs Validation - STEWARD Project,SLE01029106,Kenema Town,Kenema,300
sle_educ_pt_steward_schools.16951,POINT (-11.18805952799994 7.878594563000036),SLE_Prim_0301,St. James Pre-Primary School,Kenema,Kenema Town Ship,Gbo-Kakajama  (Shimbeck),SLE01029106,Primary School,7.87859456,-11.18805953,Needs Validation - STEWARD Project,SLE01029106,Kenema Town,Kenema,301
sle_educ_pt_steward_schools.16952,POINT (-11.18138472499993 7.874624976000064),SLE_Seco_0302,Government Secondary School,Kenema,Kenema Town Ship,Gbo-Kakajama  (Kissy Town),SLE01029108,Secondary School,7.87462498,-11.18138472,Needs Validation - STEWARD Project,SLE01029108,Kenema Town,Kenema,302
sle_educ_pt_steward_schools.16953,POINT (-11.18093758699996 7.872331331000055),SLE_Seco_0303,Government Secondary School Quarters/Domiteries,Kenema,Kenema Town Ship,Gbo-Kakajama  (Kissy Town),SLE01029108,Secondary School,7.87233133,-11.18093759,Needs Validation - STEWARD Project,SLE01029108,Kenema Town,Kenema,303
sle_educ_pt_steward_schools.16954,POINT (-11.171308902999954 7.875563139000064),SLE_Scho_0304,Kenema District Education Committee School,Kenema,Kenema Town Ship,Gbo-Kakajama  (Kissy Town),SLE01029108,School,7.87556314,-11.1713089,Needs Validation - STEWARD Project,SLE01029108,Kenema Town,Kenema,304
sle_educ_pt_steward_schools.16955,POINT (-11.180874922999976 7.870749786000033),SLE_Prim_0305,Church of Christ Primary School,Kenema,Kenema Town Ship,Gbo-Kakajama  (Kissy Town),SLE01029108,Primary School,7.87074979,-11.18087492,Needs Validation - STEWARD Project,SLE01029108,Kenema Town,Kenema,305
sle_educ_pt_steward_schools.16956,POINT (-11.178891896999971 7.867713858000059),SLE_Prim_0306,Kenema District Education Committee Primary School,Kenema,Kenema Town Ship,Gbo-Kakajama  (Kissy Town),SLE01029108,Primary School,7.86771386,-11.1788919,Needs Validation - STEWARD Project,SLE01029108,Kenema Town,Kenema,306
sle_educ_pt_steward_schools.16957,POINT (-11.180874922999976 7.870749786000033),SLE_Prim_0307,Church of Christ Primary School,Kenema,Kenema Town Ship,Gbo-Kakajama  (Shimbeck),SLE01029108,Primary School,7.87074979,-11.18087492,Needs Validation - STEWARD Project,SLE01029108,Kenema Town,Kenema,307
sle_educ_pt_steward_schools.16958,POINT (-11.18713232999994 7.866016803000036),SLE_Seco_0308,Holy Rosary Secomdary School - Dama Road,Kenema,Kenema Town Ship,Gbo-Kakajama  (Kissy Town),SLE01029109,Secondary School,7.8660168,-11.18713233,Needs Validation - STEWARD Project,SLE01029109,Kenema Town,Kenema,308
sle_educ_pt_steward_schools.16959,POINT (-11.18713232999994 7.866016803000036),SLE_Seco_0309,Holy Rosary Secomdary School - Dama Road,Kenema,Kenema Town Ship,Gbo-Kakajama  (Kissy Town),SLE01029109,Secondary School,7.8660168,-11.18713233,Needs Validation - STEWARD Project,SLE01029109,Kenema Town,Kenema,309
sle_educ_pt_steward_schools.16960,POINT (-11.18338732899997 7.855406146000064),SLE_Seco_0310,Lukes Commerical Secondary School,Kenema,Kenema Town Ship,Gbo-Kakajama  (Kissy Town),SLE01029109,Secondary School,7.85540615,-11.18338733,Needs Validation - STEWARD Project,SLE01029109,Kenema Town,Kenema,310
sle_educ_pt_steward_schools.16961,POINT (-11.183769110999947 7.866007201000059),SLE_Seco_0311,Marians Pre-School - Mission Road,Kenema,Kenema Town Ship,Gbo-Kakajama  (Kissy Town),SLE01029109,Secondary School,7.8660072,-11.18376911,Needs Validation - STEWARD Project,SLE01029109,Kenema Town,Kenema,311
sle_educ_pt_steward_schools.16962,POINT (-11.178135114999975 7.866877134000049),SLE_Scho_0312,Kenema District Education Committee School,Kenema,Kenema Town Ship,Gbo-Kakajama  (Kissy Town),SLE01029109,School,7.86687713,-11.17813512,Needs Validation - STEWARD Project,SLE01029109,Kenema Town,Kenema,312
sle_educ_pt_steward_schools.16963,POINT (-11.186530778999952 7.865396231000034),SLE_Prim_0313,Holy Rosary Primary School - Dama Road,Kenema,Kenema Town Ship,Gbo-Kakajama  (Kissy Town),SLE01029109,Primary School,7.86539623,-11.18653078,Needs Validation - STEWARD Project,SLE01029109,Kenema Town,Kenema,313
sle_educ_pt_steward_schools.16964,POINT (-11.186530778999952 7.865396231000034),SLE_Prim_0314,Holy Rosary Primary School - Dama Road,Kenema,Kenema Town Ship,Gbo-Kakajama  (Kissy Town),SLE01029109,Primary School,7.86539623,-11.18653078,Needs Validation - STEWARD Project,SLE01029109,Kenema Town,Kenema,314
sle_educ_pt_steward_schools.16965,POINT (-11.178125677999958 7.8650693270000716),SLE_Prim_0315,K.D.E Primary School,Kenema,Kenema Town Ship,Gbo-Kakajama  (Kissy Town),SLE01029109,Primary School,7.86506933,-11.17812568,Needs Validation - STEWARD Project,SLE01029109,Kenema Town,Kenema,315
sle_educ_pt_steward_schools.16966,POINT (-11.183769110999947 7.866007201000059),SLE_Prim_0316,Marians Pre-School - Mission Road,Kenema,Kenema Town Ship,Gbo-Kakajama  (Kissy Town),SLE01029109,Primary School,7.8660072,-11.18376911,Needs Validation - STEWARD Project,SLE01029109,Kenema Town,Kenema,316
sle_educ_pt_steward_schools.16967,POINT (-11.180448763999948 7.868998384000065),SLE_Prim_0317,National Islamic Primary School,Kenema,Kenema Town Ship,Gbo-Kakajama  (Kissy Town),SLE01029109,Primary School,7.86899838,-11.18044876,Needs Validation - STEWARD Project,SLE01029109,Kenema Town,Kenema,317
sle_educ_pt_steward_schools.16968,POINT (-11.183823540999981 7.869477988000028),SLE_Prim_0318,Seventh - Day Adventist Primary School,Kenema,Kenema Town Ship,Gbo-Kakajama  (Kissy Town),SLE01029109,Primary School,7.86947799,-11.18382354,Needs Validation - STEWARD Project,SLE01029109,Kenema Town,Kenema,318
sle_educ_pt_steward_schools.16969,POINT (-11.183823540999981 7.869477988000028),SLE_Prim_0319,Seventh - Day Adventist Primary School,Kenema,Kenema Town Ship,Gbo-Kakajama  (Kissy Town),SLE01029109,Primary School,7.86947799,-11.18382354,Needs Validation - STEWARD Project,SLE01029109,Kenema Town,Kenema,319
sle_educ_pt_steward_schools.16970,POINT (-11.184052989999941 7.864821582000047),SLE_Prim_0320,St. Pauls Primary School,Kenema,Kenema Town Ship,Gbo-Kakajama  (Kissy Town),SLE01029109,Primary School,7.86482158,-11.18405299,Needs Validation - STEWARD Project,SLE01029109,Kenema Town,Kenema,320
sle_educ_pt_steward_schools.16971,POINT (-11.18713232999994 7.866016803000036),SLE_Prim_0321,St. Pauls Roman Catholic Mission Primary School,Kenema,Kenema Town Ship,Gbo-Kakajama  (Kissy Town),SLE01029109,Primary School,7.8660168,-11.18713233,Needs Validation - STEWARD Project,SLE01029109,Kenema Town,Kenema,321
sle_educ_pt_steward_schools.16972,POINT (-11.181847150999943 7.8711786130000405),SLE_Prim_0322,War Affected Childrens Primary School,Kenema,Kenema Town Ship,Gbo-Kakajama  (Kissy Town),SLE01029109,Primary School,7.87117861,-11.18184715,Needs Validation - STEWARD Project,SLE01029109,Kenema Town,Kenema,322
sle_educ_pt_steward_schools.16973,POINT (-11.185257454999942 7.857665275000045),SLE_Prim_0323,Kulafai Rashudeen Primary School,Kenema,Kenema Town Ship,Gbo-Kakajama  (Kissy Town),SLE01029110,Primary School,7.85766528,-11.18525746,Needs Validation - STEWARD Project,SLE01029110,Kenema Town,Kenema,323
sle_educ_pt_steward_schools.16974,POINT (-11.186769936999951 7.8574043050000455),SLE_Prim_0324,Islamic Welfare Primary School - Kpelema,Kenema,Kenema Town Ship,Gbo-Kakajama  (Shimbeck),SLE01029110,Primary School,7.8574043,-11.18676994,Needs Validation - STEWARD Project,SLE01029110,Kenema Town,Kenema,324
sle_educ_pt_steward_schools.16975,POINT (-11.202878496999972 7.871186178000073),SLE_Prim_0325,Ahmadiyya Primary School,Kenema,Kenema Town Ship,Gbo-Lambayama (Lambayama),SLE01029111,Primary School,7.87118618,-11.2028785,Needs Validation - STEWARD Project,SLE01029111,Kenema Town,Kenema,325
sle_educ_pt_steward_schools.16976,POINT (-11.200003699999968 7.865813935000062),SLE_Prim_0326,Al-Qudus Primary School,Kenema,Kenema Town Ship,Gbo-Lambayama (Lambayama),SLE01029111,Primary School,7.86581394,-11.2000037,Needs Validation - STEWARD Project,SLE01029111,Kenema Town,Kenema,326
sle_educ_pt_steward_schools.16977,POINT (-11.202650193999943 7.8622838290000345),SLE_Prim_0327,Arrahim Islamic Primary School,Kenema,Kenema Town Ship,Gbo-Lambayama (Lambayama),SLE01029111,Primary School,7.86228383,-11.20265019,Needs Validation - STEWARD Project,SLE01029111,Kenema Town,Kenema,327
sle_educ_pt_steward_schools.16978,POINT (-11.198400331999949 7.871191599000042),SLE_Prim_0328,Sierra Leone Muslim Brotheahoo Primary School,Kenema,Kenema Town Ship,Gbo-Lambayama (Lambayama),SLE01029111,Primary School,7.8711916,-11.19840033,Needs Validation - STEWARD Project,SLE01029111,Kenema Town,Kenema,328
sle_educ_pt_steward_schools.16979,POINT (-11.202878496999972 7.871186178000073),SLE_Prim_0329,Ahimadiyya Primary School,Kenema,Kenema Town Ship,Gbo-Lambayama (Nyandeyama),SLE01029111,Primary School,7.87118618,-11.2028785,Needs Validation - STEWARD Project,SLE01029111,Kenema Town,Kenema,329
sle_educ_pt_steward_schools.16980,POINT (-11.200003699999968 7.865813935000062),SLE_Prim_0330,Al-Qudus Primary School,Kenema,Kenema Town Ship,Gbo-Lambayama (Nyandeyama),SLE01029111,Primary School,7.86581394,-11.2000037,Needs Validation - STEWARD Project,SLE01029111,Kenema Town,Kenema,330
sle_educ_pt_steward_schools.16981,POINT (-11.202650193999943 7.8622838290000345),SLE_Prim_0331,Arahim Islamic Primary School,Kenema,Kenema Town Ship,Gbo-Lambayama (Nyandeyama),SLE01029111,Primary School,7.86228383,-11.20265019,Needs Validation - STEWARD Project,SLE01029111,Kenema Town,Kenema,331
sle_educ_pt_steward_schools.16982,POINT (-11.198400331999949 7.871191599000042),SLE_Prim_0332,Sierra Leone Muslim Brotheahoo Primary School,Kenema,Kenema Town Ship,Gbo-Lambayama (Nyandeyama),SLE01029111,Primary School,7.8711916,-11.19840033,Needs Validation - STEWARD Project,SLE01029111,Kenema Town,Kenema,332
sle_educ_pt_steward_schools.16983,POINT (-11.197662475999948 7.863629685000035),SLE_Seco_0333,Holy Trinty Secondary School,Kenema,Kenema Town Ship,Gbo-Lambayama Noigbuama),SLE01029112,Secondary School,7.86362968,-11.19766248,Needs Validation - STEWARD Project,SLE01029112,Kenema Town,Kenema,333
sle_educ_pt_steward_schools.16984,POINT (-11.197606040999972 7.863241296000069),SLE_Prim_0334,Holy Family Primary School,Kenema,Kenema Town Ship,Gbo-Lambayama Noigbuama),SLE01029112,Primary School,7.8632413,-11.19760604,Needs Validation - STEWARD Project,SLE01029112,Kenema Town,Kenema,334
sle_educ_pt_steward_schools.16985,POINT (-11.197958281999945 7.862995395000041),SLE_Prim_0335,United Methodist Church Primary School - Kpetewoma,Kenema,Kenema Town Ship,Gbo-Lambayama Noigbuama),SLE01029112,Primary School,7.8629954,-11.19795828,Needs Validation - STEWARD Project,SLE01029112,Kenema Town,Kenema,335
sle_educ_pt_steward_schools.16986,POINT (-11.19743611399997 7.870563910000044),SLE_Prim_0336,United Methodist Church Primary School - Kpetewoma,Kenema,Kenema Town Ship,Gbo-Lambayama Noigbuama),SLE01029112,Primary School,7.87056391,-11.19743611,Needs Validation - STEWARD Project,SLE01029112,Kenema Town,Kenema,336
sle_educ_pt_steward_schools.16987,POINT (-11.204819511999972 7.857662488000074),SLE_Prim_0337,Ahmadiyya Primary School,Kenema,Kenema Town Ship,Gbo-Lambayama (Fonikoh),SLE01029113,Primary School,7.85766249,-11.20481951,Needs Validation - STEWARD Project,SLE01029113,Kenema Town,Kenema,337
sle_educ_pt_steward_schools.16988,POINT (-11.203610527999956 7.862179359000038),SLE_Prim_0338,Ahmadiyya Primary School,Kenema,Kenema Town Ship,Gbo-Lambayama (Fonikoh),SLE01029113,Primary School,7.86217936,-11.20361053,Needs Validation - STEWARD Project,SLE01029113,Kenema Town,Kenema,338
sle_educ_pt_steward_schools.16989,POINT (-11.196323990999929 7.860780311000042),SLE_Seco_0339,Islamic Secondary School - Islamic Lane,Kenema,Kenema Town Ship,Gbo-Kakajama  (Shimbeck),SLE01029114,Secondary School,7.86078031,-11.19632399,Needs Validation - STEWARD Project,SLE01029114,Kenema Town,Kenema,339
sle_educ_pt_steward_schools.16990,POINT (-11.20660044999994 7.8515969290000385),SLE_Seco_0340,Ahmadiyya Muslim Secondary School/Compound,Kenema,Kenema Town Ship,Gbo-Lambayama (Lambayama),SLE01029114,Secondary School,7.85159693,-11.20660045,Needs Validation - STEWARD Project,SLE01029114,Kenema Town,Kenema,340
sle_educ_pt_steward_schools.16991,POINT (-11.208335542999976 7.854019338000057),SLE_Seco_0341,Lebanese International School (Lambayama),Kenema,Kenema Town Ship,Gbo-Lambayama (Lambayama),SLE01029114,Secondary School,7.85401934,-11.20833554,Needs Validation - STEWARD Project,SLE01029114,Kenema Town,Kenema,341
sle_educ_pt_steward_schools.16992,POINT (-11.198259223999969 7.859893386000067),SLE_Prim_0342,Islamic Primary School - Hotagua Street,Kenema,Kenema Town Ship,Gbo-Kakajama  (Shimbeck),SLE01029114,Primary School,7.85989339,-11.19825922,Needs Validation - STEWARD Project,SLE01029114,Kenema Town,Kenema,342
sle_educ_pt_steward_schools.16993,POINT (-11.197868132999929 7.861368817000027),SLE_Prim_0343,Islamic Primary School,Kenema,Kenema Town Ship,Gbo-Lambayama (Lambayama),SLE01029114,Primary School,7.86136882,-11.19786813,Needs Validation - STEWARD Project,SLE01029114,Kenema Town,Kenema,343
sle_educ_pt_steward_schools.16994,POINT (-11.176027261999934 7.909309427000039),SLE_Prim_0344,Gombu - Bangla/Sierra K.D.E.C. Primary School,Kenema,Kenema Town Ship,Gbo-Lambayama (ReservationGombu & Konde-Botihun),SLE01029115,Primary School,7.90930943,-11.17602726,Needs Validation - STEWARD Project,SLE01029115,Kenema Town,Kenema,344
sle_educ_pt_steward_schools.16995,POINT (-11.171844848999967 7.908752694000043),SLE_Prim_0345,Kenema District Education Committee Primary School,Kenema,Kenema Town Ship,Gbo-Lambayama (ReservationGombu & Konde-Botihun),SLE01029115,Primary School,7.90875269,-11.17184485,Needs Validation - STEWARD Project,SLE01029115,Kenema Town,Kenema,345
sle_educ_pt_steward_schools.16996,POINT (-11.18299041399996 7.900758108000048),SLE_Prim_0346,konde Botihun - Street - Kizito Primary School,Kenema,Kenema Town Ship,Gbo-Lambayama (ReservationGombu & Konde-Botihun),SLE01029117,Primary School,7.90075811,-11.18299041,Needs Validation - STEWARD Project,SLE01029117,Kenema Town,Kenema,346
sle_educ_pt_steward_schools.16997,POINT (-11.18264628999998 7.893926239000052),SLE_Prim_0347,Provincial Islamic Primary School,Kenema,Kenema Town Ship,Gbo-Lambayama (ReservationGombu & Konde-Botihun),SLE01029117,Primary School,7.89392624,-11.18264629,Needs Validation - STEWARD Project,SLE01029117,Kenema Town,Kenema,347
sle_educ_pt_steward_schools.16998,POINT (-10.648801194999976 7.99283136400004),SLE_Prim_0348,Methodistr Primary School - Baiwalla,Kailahun,Dea,Baiwalla,SLE01010101,Primary School,7.99283136,-10.6488012,Needs Validation - STEWARD Project,SLE01010101,Dea,Kailahun,348
sle_educ_pt_steward_schools.16999,POINT (-10.649361071999977 7.994465719000061),SLE_Prim_0349,Roman Catholic Primary School - Baiwalla,Kailahun,Dea,Baiwalla,SLE01010101,Primary School,7.99446572,-10.64936107,Needs Validation - STEWARD Project,SLE01010101,Dea,Kailahun,349
sle_educ_pt_steward_schools.17000,POINT (-10.672603249999952 7.968476476000035),SLE_Prim_0350,Kailahun District Educational Committee  Primary School,Kailahun,Dea,Dodo,SLE01010102,Primary School,7.96847648,-10.67260325,Needs Validation - STEWARD Project,SLE01010102,Dea,Kailahun,350
sle_educ_pt_steward_schools.17001,POINT (-10.673472707999963 7.965932211000052),SLE_Prim_0351,Provincial Islamic Primary School - Dodo,Kailahun,Dea,Dodo,SLE01010102,Primary School,7.96593221,-10.67347271,Needs Validation - STEWARD Project,SLE01010102,Dea,Kailahun,351
sle_educ_pt_steward_schools.17002,POINT (-10.67295539099996 7.930029138000066),SLE_Prim_0352,Roman Catholic Primary School - Nagbena,Kailahun,Dea,Dodo,SLE01010102,Primary School,7.93002914,-10.67295539,Needs Validation - STEWARD Project,SLE01010102,Dea,Kailahun,352
sle_educ_pt_steward_schools.17003,POINT (-10.674253373999932 8.008389456000032),SLE_Prim_0353,Roman Catholic Primary School - Sakiema,Kailahun,Dea,Sakiema,SLE01010103,Primary School,8.00838946,-10.67425337,Needs Validation - STEWARD Project,SLE01010103,Dea,Kailahun,353
sle_educ_pt_steward_schools.17004,POINT (-10.664705690999938 7.8969507830000225),SLE_Prim_0354,K.D.E.C. Primary School,Kailahun,Dea,Sienga,SLE01010104,Primary School,7.89695078,-10.66470569,Needs Validation - STEWARD Project,SLE01010104,Dea,Kailahun,354
sle_educ_pt_steward_schools.17005,POINT (-10.629451064999955 7.93950589800005),SLE_Prim_0355,Roman Catholic Primary School - Sienga,Kailahun,Dea,Sienga,SLE01010104,Primary School,7.9395059,-10.62945106,Needs Validation - STEWARD Project,SLE01010104,Dea,Kailahun,355
sle_educ_pt_steward_schools.17006,POINT (-10.931680989999961 7.900603237000041),SLE_Seco_0356,Ahmadiyya Muslima Secondary School,Kailahun,Jawie,Bobor,SLE01010201,Secondary School,7.90060324,-10.93168099,Needs Validation - STEWARD Project,SLE01010201,Jawie,Kailahun,356
sle_educ_pt_steward_schools.17007,POINT (-10.89511263399993 7.9026873190000515),SLE_Prim_0357,Methodist Primary School,Kailahun,Jawie,Bobor,SLE01010201,Primary School,7.90268732,-10.89511263,Needs Validation - STEWARD Project,SLE01010201,Jawie,Kailahun,357
sle_educ_pt_steward_schools.17008,POINT (-10.937397819999944 7.909328060000064),SLE_Prim_0358,National Islamic Primary School,Kailahun,Jawie,Bobor,SLE01010201,Primary School,7.90932806,-10.93739782,Needs Validation - STEWARD Project,SLE01010201,Jawie,Kailahun,358
sle_educ_pt_steward_schools.17009,POINT (-10.90094451699997 7.922794621000037),SLE_Prim_0359,R.C.Priamry School,Kailahun,Jawie,Bobor,SLE01010201,Primary School,7.92279462,-10.90094452,Needs Validation - STEWARD Project,SLE01010201,Jawie,Kailahun,359
sle_educ_pt_steward_schools.17010,POINT (-10.866955227999938 7.938363059000039),SLE_Prim_0360,Methodist Primary School (Makeshift),Kailahun,Jawie,Kaio,SLE01010202,Primary School,7.93836306,-10.86695523,Needs Validation - STEWARD Project,SLE01010202,Jawie,Kailahun,360
sle_educ_pt_steward_schools.17011,POINT (-10.85487597599996 7.952493917000027),SLE_Prim_0361,Methodist Primary School (Makeshift),Kailahun,Jawie,Kaio,SLE01010202,Primary School,7.95249392,-10.85487598,Needs Validation - STEWARD Project,SLE01010202,Jawie,Kailahun,361
sle_educ_pt_steward_schools.17012,POINT (-10.87391238899994 7.922709102000056),SLE_Prim_0362,Provincial Islamic Primary School,Kailahun,Jawie,Kaio,SLE01010202,Primary School,7.9227091,-10.87391239,Needs Validation - STEWARD Project,SLE01010202,Jawie,Kailahun,362
sle_educ_pt_steward_schools.17013,POINT (-10.936046579999982 7.8174094120000746),SLE_Prim_0363,K.L.D.E.C. Primary School,Kailahun,Jawie,Lower Giebu,SLE01010203,Primary School,7.81740941,-10.93604658,Needs Validation - STEWARD Project,SLE01010203,Jawie,Kailahun,363
sle_educ_pt_steward_schools.17014,POINT (-10.914260722999927 7.842913206000048),SLE_Prim_0364,K.L.D.E.C. Primary School,Kailahun,Jawie,Lower Giebu,SLE01010203,Primary School,7.84291321,-10.91426072,Needs Validation - STEWARD Project,SLE01010203,Jawie,Kailahun,364
sle_educ_pt_steward_schools.17015,POINT (-10.904527918999975 7.847830338000051),SLE_Prim_0365,Provincial Islamic Primary School,Kailahun,Jawie,Upper Giebu,SLE01010203,Primary School,7.84783034,-10.90452792,Needs Validation - STEWARD Project,SLE01010203,Jawie,Kailahun,365
